{"network": {"company": null, "ebikes": true, "gbfs_href": "https://velib-metropole-opendata.smoove.pro/opendata/Velib_Metropole/gbfs.json", "href": "/v2/networks/velib", "id": "velib", "license": {"name": "OPEN LICENCE 2.0", "url": "etalab.gouv.fr/wp-content/uploads/2018/11/open-licence.pdf"}, "location": {"city": "Paris", "country": "FR", "latitude": 48.856614, "longitude": 2.3522219}, "name": "Velib' M\u00e9trop\u00f4le", "stations": [{"empty_slots": 30, "extra": {"banking": false, "ebikes": 3, "last_updated": 1668791603, "payment-terminal": false, "renting": 1, "returning": 1, "slots": 35, "station_id": 213688169, "uid": "16107"}, "free_bikes": 4, "id": "78ec9186acd18a0b30bd3156d24b9f8d", "latitude": 48.865983, "longitude": 2.275725, "name": "Benjamin Godard - Victor Hugo", "timestamp": "2022-11-18T17:27:06.758000Z"}, {"empty_slots": 37, "extra": {"banking": true, "ebikes": 2, "last_updated": 1668791630, "payment": ["creditcard"], "payment-terminal": true, "renting": 1, "returning": 1, "slots": 55, "station_id": 99950133, "uid": "6015"}, "free_bikes": 18, "id": "43c856353b954711f2bbee185a1f9d04", "latitude": 48.85375581057431, "longitude": 2.3390958085656166, "name": "Andr\u00e9 Mazet - Saint-Andr\u00e9 des Arts", "timestamp": "2022-11-18T17:27:06.667000Z"}, {"empty_slots": 19, "extra": {"banking": true, "ebikes": 3, "last_updated": 1668791629, "payment": ["creditcard"], "payment-terminal": true, "renting": 1, "returning": 1, "slots": 38, "station_id": 312165511, "uid": "11037"}, "free_bikes": 11, "id": "9b2700f3b19beb1dd9df2fd6a013789f", "latitude": 48.867872484749, "longitude": 2.3648982158072, "name": "Faubourg Du Temple - Republique", "timestamp": "2022-11-18T17:27:02.878000Z"}, {"empty_slots": 16, "extra": {"banking": true, "ebikes": 2, "last_updated": 1668791633, "payment": ["creditcard"], "payment-terminal": true, "renting": 1, "returning": 1, "slots": 20, "station_id": 210405211, "uid": "6021"}, "free_bikes": 2, "id": "80778031e1a033712bfc3a27a190d5dd", "latitude": 48.856451985395786, "longitude": 2.334851883351803, "name": "Beaux-Arts - Bonaparte", "timestamp": "2022-11-18T17:27:03.912000Z"}, {"empty_slots": 18, "extra": {"banking": true, "ebikes": 0, "last_updated": 1668791580, "payment": ["creditcard"], "payment-terminal": true, "renting": 1, "returning": 1, "slots": 21, "station_id": 36255, "uid": "9020"}, "free_bikes": 3, "id": "f8f9ec30d28856f9b7fad103be9e4674", "latitude": 48.87929591733507, "longitude": 2.3373600840568547, "name": "Toudouze - Clauzel", "timestamp": "2022-11-18T17:27:04.107000Z"}, {"empty_slots": 16, "extra": {"banking": false, "ebikes": 0, "last_updated": 1668791439, "payment-terminal": false, "renting": 1, "returning": 1, "slots": 20, "station_id": 516709288, "uid": "11104"}, "free_bikes": 3, "id": "59f355492ad3a784fdba53e67467b207", "latitude": 48.85590755596891, "longitude": 2.3925706744194035, "name": "Charonne - Robert et Sonia Delauney", "timestamp": "2022-11-18T17:27:06.206000Z"}, {"empty_slots": 22, "extra": {"banking": false, "ebikes": 1, "last_updated": 1668791638, "payment-terminal": false, "renting": 1, "returning": 1, "slots": 30, "station_id": 37815204, "uid": "12109"}, "free_bikes": 8, "id": "6e0dbb5b877eec618e2b40acdfcc6bb8", "latitude": 48.840855311763, "longitude": 2.3875549435616, "name": "Mairie du 12\u00e8me", "timestamp": "2022-11-18T17:27:02.560000Z"}, {"empty_slots": 34, "extra": {"banking": true, "ebikes": 2, "last_updated": 1668791635, "payment": ["creditcard"], "payment-terminal": true, "renting": 1, "returning": 1, "slots": 60, "station_id": 210566542, "uid": "7003"}, "free_bikes": 22, "id": "268880c2481e7aa03975a7f4ee985945", "latitude": 48.851296433665276, "longitude": 2.325061820447445, "name": "Square Boucicaut", "timestamp": "2022-11-18T17:27:06.595000Z"}, {"empty_slots": 37, "extra": {"banking": true, "ebikes": 3, "last_updated": 1668791518, "payment": ["creditcard"], "payment-terminal": true, "renting": 1, "returning": 1, "slots": 45, "station_id": 100769544, "uid": "5001"}, "free_bikes": 7, "id": "11d2a821689732b32a0b4178425a3189", "latitude": 48.851518815017, "longitude": 2.3436703160405, "name": "Harpe - Saint-Germain", "timestamp": "2022-11-18T17:27:04.400000Z"}, {"empty_slots": 38, "extra": {"banking": true, "ebikes": 0, "last_updated": 1668791638, "payment": ["creditcard"], "payment-terminal": true, "renting": 1, "returning": 1, "slots": 40, "station_id": 54000559, "uid": "17026"}, "free_bikes": 0, "id": "9468274d3c6d8dd8c367c4b8650c869e", "latitude": 48.881973298351625, "longitude": 2.301132157444954, "name": "Jouffroy d'Abbans - Wagram", "timestamp": "2022-11-18T17:27:06.215000Z"}, {"empty_slots": 22, "extra": {"banking": true, "ebikes": 4, "last_updated": 1668791393, "payment": ["creditcard"], "payment-terminal": true, "renting": 1, "returning": 1, "slots": 36, "station_id": 85043758, "uid": "17041"}, "free_bikes": 12, "id": "c9edcdf32809c955e2ab833381c149a2", "latitude": 48.88287775178599, "longitude": 2.287667370814871, "name": "Guersant - Gouvion-Saint-Cyr", "timestamp": "2022-11-18T17:27:03.726000Z"}, {"empty_slots": 51, "extra": {"banking": true, "ebikes": 5, "last_updated": 1668791546, "payment": ["creditcard"], "payment-terminal": true, "renting": 1, "returning": 1, "slots": 60, "station_id": 123095125, "uid": "10013"}, "free_bikes": 8, "id": "45c2573f9bb3d58a288af4247ff3f406", "latitude": 48.8710440519842, "longitude": 2.366104461987773, "name": "Alibert - Jemmapes", "timestamp": "2022-11-18T17:27:03.519000Z"}, {"empty_slots": 9, "extra": {"banking": true, "ebikes": 2, "last_updated": 1668791635, "payment": ["creditcard"], "payment-terminal": true, "renting": 1, "returning": 1, "slots": 22, "station_id": 129026597, "uid": "9104"}, "free_bikes": 11, "id": "7d145bbd89111d7193b951dfc6c02487", "latitude": 48.874422773426545, "longitude": 2.3284685611724854, "name": "Caumartin - Provence", "timestamp": "2022-11-18T17:27:06.512000Z"}, {"empty_slots": 23, "extra": {"banking": true, "ebikes": 0, "last_updated": 1668791640, "payment": ["creditcard"], "payment-terminal": true, "renting": 1, "returning": 1, "slots": 25, "station_id": 251039991, "uid": "14111"}, "free_bikes": 0, "id": "ff7997b9155b49ebda0f3e7ea20e4d89", "latitude": 48.837525839067, "longitude": 2.3360354080796, "name": "Cassini - Denfert-Rochereau", "timestamp": "2022-11-18T17:27:04.526000Z"}, {"empty_slots": 11, "extra": {"banking": true, "ebikes": 2, "last_updated": 1668791630, "payment": ["creditcard"], "payment-terminal": true, "renting": 1, "returning": 1, "slots": 21, "station_id": 37874517, "uid": "6003"}, "free_bikes": 9, "id": "f0ced785f9435ff9284445a1897856e1", "latitude": 48.85165383178419, "longitude": 2.3308077827095985, "name": "Saint-Sulpice", "timestamp": "2022-11-18T17:27:03.875000Z"}, {"empty_slots": 14, "extra": {"banking": false, "ebikes": 1, "last_updated": 1668791639, "payment-terminal": false, "renting": 1, "returning": 1, "slots": 18, "station_id": 210567545, "uid": "7004"}, "free_bikes": 2, "id": "d1d88931b3ec2bdadebae98bce0a775d", "latitude": 48.85314781654488, "longitude": 2.3263905197381973, "name": "Raspail - Varenne", "timestamp": "2022-11-18T17:27:01.612000Z"}, {"empty_slots": 3, "extra": {"banking": true, "ebikes": 10, "last_updated": 1668791618, "payment": ["creditcard"], "payment-terminal": true, "renting": 1, "returning": 1, "slots": 23, "station_id": 210403080, "uid": "5110"}, "free_bikes": 19, "id": "8ab5dcca384aad21e3b083a30d6ae263", "latitude": 48.84389286531899, "longitude": 2.3519663885235786, "name": "Lac\u00e9p\u00e8de - Monge", "timestamp": "2022-11-18T17:27:06.731000Z"}, {"empty_slots": 13, "extra": {"banking": false, "ebikes": 3, "last_updated": 1668791489, "payment-terminal": false, "renting": 1, "returning": 1, "slots": 17, "station_id": 210561800, "uid": "6108"}, "free_bikes": 3, "id": "7d6ba3781c835c4a552b373689b71188", "latitude": 48.84708159081946, "longitude": 2.321374788880348, "name": "Saint-Romain - Cherche-Midi", "timestamp": "2022-11-18T17:27:03.853000Z"}, {"empty_slots": 23, "extra": {"banking": false, "ebikes": 2, "last_updated": 1668791579, "payment-terminal": false, "renting": 1, "returning": 1, "slots": 31, "station_id": 209063434, "uid": "33006"}, "free_bikes": 7, "id": "0e3c0f14de288ac43c5a8b0a1cbc33b9", "latitude": 48.91039875761846, "longitude": 2.3851355910301213, "name": "Andr\u00e9 Karman - R\u00e9publique", "timestamp": "2022-11-18T17:27:04.130000Z"}, {"empty_slots": 27, "extra": {"banking": false, "ebikes": 0, "last_updated": 1668791495, "payment-terminal": false, "renting": 1, "returning": 1, "slots": 27, "station_id": 94555589, "uid": "42016"}, "free_bikes": 0, "id": "036b6154355561cef963080cc32a2dbd", "latitude": 48.81580226360801, "longitude": 2.376804985105991, "name": "Pierre et Marie Curie - Maurice Thorez", "timestamp": "2022-11-18T17:27:04.115000Z"}, {"empty_slots": 46, "extra": {"banking": true, "ebikes": 1, "last_updated": 1668791641, "payment": ["creditcard"], "payment-terminal": true, "renting": 1, "returning": 1, "slots": 50, "station_id": 244498842, "uid": "41301"}, "free_bikes": 2, "id": "d16fc1f39f76274493aa77c45f2b36e5", "latitude": 48.836022242886884, "longitude": 2.4708339950830287, "name": "Bois de Vincennes - Gare", "timestamp": "2022-11-18T17:27:01.621000Z"}, {"empty_slots": 21, "extra": {"banking": true, "ebikes": 4, "last_updated": 1668791640, "payment": ["creditcard"], "payment-terminal": true, "renting": 1, "returning": 1, "slots": 25, "station_id": 43195240, "uid": "21010"}, "free_bikes": 4, "id": "b5e0ce34d56d5a00d64947b6045b9fdc", "latitude": 48.835583838706, "longitude": 2.2325500845909, "name": "Silly - Galli\u00e9ni", "timestamp": "2022-11-18T17:27:06.162000Z"}, {"empty_slots": 15, "extra": {"banking": true, "ebikes": 5, "last_updated": 1668791564, "payment": ["creditcard"], "payment-terminal": true, "renting": 1, "returning": 1, "slots": 22, "station_id": 501862076, "uid": "25006"}, "free_bikes": 6, "id": "17f036f2bcf0225fd7bcf61662325e13", "latitude": 48.862090937689715, "longitude": 2.196576297283173, "name": "Place Nelson Mandela ", "timestamp": "2022-11-18T17:27:04.210000Z"}, {"empty_slots": 43, "extra": {"banking": true, "ebikes": 3, "last_updated": 1668791639, "payment": ["creditcard"], "payment-terminal": true, "renting": 1, "returning": 1, "slots": 48, "station_id": 66491398, "uid": "13007"}, "free_bikes": 5, "id": "6a847ac4b705e2863bba9460a0b320fe", "latitude": 48.835092787823875, "longitude": 2.353468135133752, "name": "Le Brun - Gobelins", "timestamp": "2022-11-18T17:27:04.963000Z"}, {"empty_slots": 0, "extra": {"banking": true, "ebikes": 13, "last_updated": 1668791639, "payment": ["creditcard"], "payment-terminal": true, "renting": 1, "returning": 1, "slots": 25, "station_id": 653062048, "uid": "10152"}, "free_bikes": 23, "id": "ac090301d156f8658f2421b14e637615", "latitude": 48.879089, "longitude": 2.354235, "name": "Gare du Nord - Place de Valenciennes", "timestamp": "2022-11-18T17:27:04.378000Z"}, {"empty_slots": 60, "extra": {"banking": true, "ebikes": 0, "last_updated": 1668791623, "payment": ["creditcard"], "payment-terminal": true, "renting": 1, "returning": 1, "slots": 62, "station_id": 207633746, "uid": "17038"}, "free_bikes": 1, "id": "a497dc1ed4a61b01828f0f64ba00aec4", "latitude": 48.876116, "longitude": 2.288124, "name": "Grande Arm\u00e9e - Brunel", "timestamp": "2022-11-18T17:27:06.577000Z"}, {"empty_slots": 19, "extra": {"banking": false, "ebikes": 0, "last_updated": 1668791284, "payment-terminal": false, "renting": 1, "returning": 1, "slots": 19, "station_id": 1333959209, "uid": "44012"}, "free_bikes": 0, "id": "a1608bb58dff0b09b90fc7a0f4955d83", "latitude": 48.794902381218904, "longitude": 2.3734183609485626, "name": "G\u00e9nie - Mozart", "timestamp": "2022-11-18T17:27:06.002000Z"}, {"empty_slots": 15, "extra": {"banking": false, "ebikes": 2, "last_updated": 1668791637, "payment-terminal": false, "renting": 1, "returning": 1, "slots": 17, "station_id": 210397939, "uid": "5016"}, "free_bikes": 2, "id": "77d33d7defdf65816fbd6a5919b0b299", "latitude": 48.84504716661511, "longitude": 2.3494647851273465, "name": "Thouin - Cardinal Lemoine", "timestamp": "2022-11-18T17:27:03.822000Z"}, {"empty_slots": 29, "extra": {"banking": true, "ebikes": 5, "last_updated": 1668791607, "payment": ["creditcard"], "payment-terminal": true, "renting": 1, "returning": 1, "slots": 43, "station_id": 82405965, "uid": "11025"}, "free_bikes": 13, "id": "75577927f1cca5915590bc2d46e1b5c8", "latitude": 48.8570414504784, "longitude": 2.37289470306807, "name": "Froment - Br\u00e9guet", "timestamp": "2022-11-18T17:27:03.732000Z"}, {"empty_slots": 13, "extra": {"banking": true, "ebikes": 1, "last_updated": 1668791314, "payment": ["creditcard"], "payment-terminal": true, "renting": 1, "returning": 1, "slots": 19, "station_id": 27414578, "uid": "6006"}, "free_bikes": 6, "id": "b36411fb0a33a59d977438de7a3dbd3e", "latitude": 48.84479928858768, "longitude": 2.329337755887181, "name": "Notre-Dame-des-Champs - Stanislas", "timestamp": "2022-11-18T17:27:04.413000Z"}, {"empty_slots": 50, "extra": {"banking": false, "ebikes": 1, "last_updated": 1668791469, "payment-terminal": false, "renting": 1, "returning": 1, "slots": 52, "station_id": 213682736, "uid": "15047"}, "free_bikes": 1, "id": "7268faf54f66d26bfcde7f0cf3396b50", "latitude": 48.83310149953933, "longitude": 2.299380004405976, "name": "Morillons - Dantzig", "timestamp": "2022-11-18T17:27:03.728000Z"}, {"empty_slots": 60, "extra": {"banking": true, "ebikes": 1, "last_updated": 1668791587, "payment": ["creditcard"], "payment-terminal": true, "renting": 1, "returning": 1, "slots": 71, "station_id": 85008390, "uid": "15028"}, "free_bikes": 10, "id": "2937695fcc7dc6bc7669a8f85fd6d90c", "latitude": 48.851315406715976, "longitude": 2.2919502854347233, "name": "Grenelle - Dr Finlay", "timestamp": "2022-11-18T17:27:01.557000Z"}, {"empty_slots": 31, "extra": {"banking": true, "ebikes": 0, "last_updated": 1668791521, "payment": ["creditcard"], "payment-terminal": true, "renting": 1, "returning": 1, "slots": 35, "station_id": 80101533, "uid": "17025"}, "free_bikes": 0, "id": "bf673f18227a42a5dcc3da272b83a8e9", "latitude": 48.879406604954, "longitude": 2.3034455627202988, "name": "Chazelles - Courcelles ", "timestamp": "2022-11-18T17:27:01.577000Z"}, {"empty_slots": 27, "extra": {"banking": true, "ebikes": 0, "last_updated": 1668791494, "payment": ["creditcard"], "payment-terminal": true, "renting": 1, "returning": 1, "slots": 34, "station_id": 54000581, "uid": "13101"}, "free_bikes": 5, "id": "fceca1139eb3598f85221418a2eed143", "latitude": 48.830981659316855, "longitude": 2.3481646925210953, "name": "Croulebarde - Corvisart", "timestamp": "2022-11-18T17:27:06.250000Z"}, {"empty_slots": 35, "extra": {"banking": true, "ebikes": 7, "last_updated": 1668791631, "payment": ["creditcard"], "payment-terminal": true, "renting": 1, "returning": 1, "slots": 44, "station_id": 599135701, "uid": "20143"}, "free_bikes": 9, "id": "ff22697fcb655df134aa23e633587ca6", "latitude": 48.871031137596, "longitude": 2.379056852114, "name": "Ramponeau - Belleville", "timestamp": "2022-11-18T17:27:05.457000Z"}, {"empty_slots": 19, "extra": {"banking": false, "ebikes": 1, "last_updated": 1668791478, "payment-terminal": false, "renting": 1, "returning": 1, "slots": 21, "station_id": 13105968, "uid": "14108"}, "free_bikes": 2, "id": "06a1142ebde3cb6346c4a4fc864c5dc2", "latitude": 48.82234096593411, "longitude": 2.327861653302471, "name": "Le Brix et Mesmin - Jourdan", "timestamp": "2022-11-18T17:27:06.131000Z"}, {"empty_slots": 30, "extra": {"banking": false, "ebikes": 7, "last_updated": 1668791473, "payment-terminal": false, "renting": 1, "returning": 1, "slots": 38, "station_id": 653208733, "uid": "31024"}, "free_bikes": 8, "id": "09d581adc5efda8a6e0c2eff61397cc2", "latitude": 48.86785, "longitude": 2.446748, "name": "Romainville - Vaillant-Couturier", "timestamp": "2022-11-18T17:27:03.948000Z"}, {"empty_slots": 12, "extra": {"banking": false, "ebikes": 1, "last_updated": 1668791586, "payment-terminal": false, "renting": 1, "returning": 1, "slots": 16, "station_id": 506455295, "uid": "15068"}, "free_bikes": 3, "id": "6eb8825f820d60b3d97416cf5aa6d06b", "latitude": 48.83823094269141, "longitude": 2.270506024360657, "name": "G\u00e9n\u00e9ral Martial Valin - Pont du Garigliano", "timestamp": "2022-11-18T17:27:02.903000Z"}, {"empty_slots": 17, "extra": {"banking": true, "ebikes": 1, "last_updated": 1668791562, "payment": ["creditcard"], "payment-terminal": true, "renting": 1, "returning": 1, "slots": 20, "station_id": 907054879, "uid": "47007"}, "free_bikes": 3, "id": "b72bbb7eb5c7086e574f95846674e2f6", "latitude": 48.79014780960843, "longitude": 2.43286281824112, "name": "Libert\u00e9 - Vert-de-Maisons", "timestamp": "2022-11-18T17:27:06.100000Z"}, {"empty_slots": 41, "extra": {"banking": false, "ebikes": 0, "last_updated": 1668791595, "payment-terminal": false, "renting": 1, "returning": 1, "slots": 42, "station_id": 129094535, "uid": "17044"}, "free_bikes": 0, "id": "cf0dcc3cdde692e1fca56a31ff549fff", "latitude": 48.89792240854517, "longitude": 2.32851451022192, "name": "Porte de Saint-Ouen - Bessi\u00e8res", "timestamp": "2022-11-18T17:27:04.893000Z"}, {"empty_slots": 24, "extra": {"banking": true, "ebikes": 0, "last_updated": 1668791571, "payment": ["creditcard"], "payment-terminal": true, "renting": 1, "returning": 1, "slots": 33, "station_id": 27415224, "uid": "15026"}, "free_bikes": 7, "id": "eaa35ac247bece89efd3383bc2c7dad4", "latitude": 48.853844054333514, "longitude": 2.289705348222022, "name": "Bir Hakeim", "timestamp": "2022-11-18T17:27:04.794000Z"}, {"empty_slots": 5, "extra": {"banking": true, "ebikes": 10, "last_updated": 1668791556, "payment": ["creditcard"], "payment-terminal": true, "renting": 1, "returning": 1, "slots": 30, "station_id": 499303158, "uid": "44017"}, "free_bikes": 25, "id": "c9326a3111d3c44e3ac8114db5b2a677", "latitude": 48.79628807093802, "longitude": 2.417212128639221, "name": "Jules Guesde - Pont du Port \u00e0 l'Anglais", "timestamp": "2022-11-18T17:27:02.327000Z"}, {"empty_slots": 35, "extra": {"banking": false, "ebikes": 0, "last_updated": 1668791544, "payment-terminal": false, "renting": 1, "returning": 1, "slots": 43, "station_id": 54000612, "uid": "19033"}, "free_bikes": 6, "id": "5349a87a2dc217a11ab002391c09f021", "latitude": 48.89594736851349, "longitude": 2.381133802246315, "name": "Cambrai - Benjamin Constant", "timestamp": "2022-11-18T17:27:06.293000Z"}, {"empty_slots": 27, "extra": {"banking": true, "ebikes": 1, "last_updated": 1668791642, "payment": ["creditcard"], "payment-terminal": true, "renting": 1, "returning": 1, "slots": 30, "station_id": 88230992, "uid": "17048"}, "free_bikes": 2, "id": "5cc8f47571f1fbacc37b07b700ded02e", "latitude": 48.882428, "longitude": 2.314002, "name": "De Toqueville - Terrasse", "timestamp": "2022-11-18T17:27:03.928000Z"}, {"empty_slots": 21, "extra": {"banking": false, "ebikes": 3, "last_updated": 1668791590, "payment-terminal": false, "renting": 1, "returning": 1, "slots": 26, "station_id": 27415302, "uid": "16118"}, "free_bikes": 5, "id": "1d59cee64768545a2f6672df4527d9c5", "latitude": 48.840579923690115, "longitude": 2.2584119439125065, "name": "Michel-Ange - Parent de Rosan", "timestamp": "2022-11-18T17:27:04.838000Z"}, {"empty_slots": 23, "extra": {"banking": true, "ebikes": 0, "last_updated": 1668791623, "payment": ["creditcard"], "payment-terminal": true, "renting": 1, "returning": 1, "slots": 26, "station_id": 102747146, "uid": "43002"}, "free_bikes": 0, "id": "90f695e0c1794b98ef78df609ee1af83", "latitude": 48.84884147189881, "longitude": 2.426325418925233, "name": "Lagny - Victor Basch", "timestamp": "2022-11-18T17:27:03.909000Z"}, {"empty_slots": 15, "extra": {"banking": false, "ebikes": 1, "last_updated": 1668791464, "payment-terminal": false, "renting": 1, "returning": 1, "slots": 18, "station_id": 42950839, "uid": "19027"}, "free_bikes": 3, "id": "ef6f3e60f8625a95574d4ba5cf0db701", "latitude": 48.8804934032465, "longitude": 2.39806417375803, "name": "Serrurier", "timestamp": "2022-11-18T17:27:01.584000Z"}, {"empty_slots": 9, "extra": {"banking": false, "ebikes": 1, "last_updated": 1668791544, "payment-terminal": false, "renting": 1, "returning": 1, "slots": 24, "station_id": 653197324, "uid": "92002"}, "free_bikes": 13, "id": "dcde9d0eedef52a437a0a6fbd1b4c19e", "latitude": 48.89264852683893, "longitude": 2.2136941552162175, "name": "Th\u00e9\u00e2tre des Amandiers - Palais des sports", "timestamp": "2022-11-18T17:27:01.557000Z"}, {"empty_slots": 25, "extra": {"banking": false, "ebikes": 0, "last_updated": 1668791510, "payment-terminal": false, "renting": 1, "returning": 1, "slots": 25, "station_id": 653132534, "uid": "21216"}, "free_bikes": 0, "id": "6dfb5192fb139d203175e04219fea536", "latitude": 48.81807418981508, "longitude": 2.3267009854316716, "name": "Louis Lejeune - Barb\u00e8s", "timestamp": "2022-11-18T17:27:04.667000Z"}, {"empty_slots": 20, "extra": {"banking": true, "ebikes": 2, "last_updated": 1668791633, "payment": ["creditcard"], "payment-terminal": true, "renting": 1, "returning": 1, "slots": 26, "station_id": 210408693, "uid": "6029"}, "free_bikes": 4, "id": "060b5cdb163a466a33c867a3d3d643ee", "latitude": 48.848951441614, "longitude": 2.3411329463124, "name": "Vaugirard - Monsieur le Prince", "timestamp": "2022-11-18T17:27:05.218000Z"}, {"empty_slots": 18, "extra": {"banking": false, "ebikes": 1, "last_updated": 1668791433, "payment-terminal": false, "renting": 1, "returning": 1, "slots": 22, "station_id": 1057149522, "uid": "22207"}, "free_bikes": 4, "id": "76d95de2fa489b3287c50f7b8fa43992", "latitude": 48.78980918988166, "longitude": 2.3143940046429634, "name": "Rond-point du Dr Albert Schweitzer", "timestamp": "2022-11-18T17:27:04.724000Z"}, {"empty_slots": 3, "extra": {"banking": true, "ebikes": 10, "last_updated": 1668791584, "payment": ["creditcard"], "payment-terminal": true, "renting": 1, "returning": 1, "slots": 33, "station_id": 128986726, "uid": "8050"}, "free_bikes": 26, "id": "146ba8cb83644c5f97a41aef5d403646", "latitude": 48.871417284354834, "longitude": 2.307678759098053, "name": "Bo\u00e9tie - Ponthieu", "timestamp": "2022-11-18T17:27:04.168000Z"}, {"empty_slots": 24, "extra": {"banking": true, "ebikes": 13, "last_updated": 1668791634, "payment": ["creditcard"], "payment-terminal": true, "renting": 1, "returning": 1, "slots": 41, "station_id": 15433394, "uid": "18015"}, "free_bikes": 15, "id": "94426ad2d7f2d578154b9fc0741e50a6", "latitude": 48.888735896947, "longitude": 2.3469526693225, "name": "Custine - Ramey", "timestamp": "2022-11-18T17:27:06.708000Z"}, {"empty_slots": 25, "extra": {"banking": false, "ebikes": 1, "last_updated": 1668791631, "payment-terminal": false, "renting": 1, "returning": 1, "slots": 26, "station_id": 85123644, "uid": "20035"}, "free_bikes": 1, "id": "5c2cc3d86482f8eb7a2024c4c0a6c6a7", "latitude": 48.8693268535238, "longitude": 2.395084574818611, "name": "Pyr\u00e9n\u00e9es - M\u00e9nilmontant", "timestamp": "2022-11-18T17:27:01.985000Z"}, {"empty_slots": 26, "extra": {"banking": false, "ebikes": 5, "last_updated": 1668791542, "payment-terminal": false, "renting": 1, "returning": 1, "slots": 40, "station_id": 27414512, "uid": "2017"}, "free_bikes": 13, "id": "f6f2086e5cd5a502faa6b5428626721c", "latitude": 48.86785342111862, "longitude": 2.349364310503006, "name": "Caire - Dussoubs", "timestamp": "2022-11-18T17:27:04.401000Z"}, {"empty_slots": 14, "extra": {"banking": false, "ebikes": 3, "last_updated": 1668791279, "payment-terminal": false, "renting": 1, "returning": 1, "slots": 17, "station_id": 210580039, "uid": "9008"}, "free_bikes": 3, "id": "ed48e8a94a3b5e6f3cd48e0ecce358a5", "latitude": 48.879161, "longitude": 2.343698, "name": "Tour d'Auvergne - Rodier", "timestamp": "2022-11-18T17:27:04.723000Z"}, {"empty_slots": 37, "extra": {"banking": true, "ebikes": 3, "last_updated": 1668791627, "payment": ["creditcard"], "payment-terminal": true, "renting": 1, "returning": 1, "slots": 63, "station_id": 210568512, "uid": "7009"}, "free_bikes": 21, "id": "eb3335b8528855e4669ddd490118c97f", "latitude": 48.86141101465194, "longitude": 2.320121418520769, "name": "Assembl\u00e9e Nationale", "timestamp": "2022-11-18T17:27:02.921000Z"}, {"empty_slots": 14, "extra": {"banking": false, "ebikes": 2, "last_updated": 1668791564, "payment-terminal": false, "renting": 1, "returning": 1, "slots": 20, "station_id": 210585225, "uid": "10027"}, "free_bikes": 6, "id": "d41d50eb287ee527848755b3a31ee559", "latitude": 48.879355, "longitude": 2.358379, "name": "Dunkerque - Alsace", "timestamp": "2022-11-18T17:27:03.098000Z"}, {"empty_slots": 6, "extra": {"banking": false, "ebikes": 13, "last_updated": 1668791275, "payment-terminal": false, "renting": 1, "returning": 1, "slots": 21, "station_id": 128940135, "uid": "8048"}, "free_bikes": 14, "id": "b558d7d5bdea63c98f68cd8d32524d39", "latitude": 48.86883394989261, "longitude": 2.2989967837929726, "name": "Marceau - Chaillot", "timestamp": "2022-11-18T17:27:05.860000Z"}, {"empty_slots": 12, "extra": {"banking": true, "ebikes": 1, "last_updated": 1668791612, "payment": ["creditcard"], "payment-terminal": true, "renting": 1, "returning": 1, "slots": 14, "station_id": 35149611, "uid": "14013"}, "free_bikes": 1, "id": "9eca9e39a4bd2df5f0a272db2c944f15", "latitude": 48.8214169, "longitude": 2.342167, "name": "Liard - Amiral Mouchez", "timestamp": "2022-11-18T17:27:05.597000Z"}, {"empty_slots": 0, "extra": {"banking": true, "ebikes": 4, "last_updated": 1668791582, "payment": ["creditcard"], "payment-terminal": true, "renting": 1, "returning": 1, "slots": 36, "station_id": 55927887, "uid": "12031"}, "free_bikes": 34, "id": "1543bd52c06ef5bdb4d4b5ee34cc486a", "latitude": 48.8351212784276, "longitude": 2.385534569621086, "name": "Gabriel Lam\u00e9", "timestamp": "2022-11-18T17:27:02.869000Z"}, {"empty_slots": 19, "extra": {"banking": false, "ebikes": 0, "last_updated": 1668791473, "payment-terminal": false, "renting": 1, "returning": 1, "slots": 22, "station_id": 210570888, "uid": "7011"}, "free_bikes": 1, "id": "5cb98cdf20ab69563923aed8167ae8a9", "latitude": 48.85909110474066, "longitude": 2.3185685276985173, "name": "Las Cases - Bourgogne", "timestamp": "2022-11-18T17:27:04.205000Z"}, {"empty_slots": 12, "extra": {"banking": false, "ebikes": 10, "last_updated": 1668791642, "payment-terminal": false, "renting": 1, "returning": 1, "slots": 25, "station_id": 129107656, "uid": "18111"}, "free_bikes": 11, "id": "fe5431d0976be760a51e34e21383f0f9", "latitude": 48.88949630486821, "longitude": 2.333393658804396, "name": "F\u00e9lix Ziem - Armand Gauthier", "timestamp": "2022-11-18T17:27:03.201000Z"}, {"empty_slots": 19, "extra": {"banking": true, "ebikes": 3, "last_updated": 1668791613, "payment": ["creditcard"], "payment-terminal": true, "renting": 1, "returning": 1, "slots": 40, "station_id": 129088667, "uid": "17010"}, "free_bikes": 19, "id": "ee5f8237d94f94862fac6e27c8f1c348", "latitude": 48.894799816683985, "longitude": 2.318705212173216, "name": "Jonqui\u00e8re - Docteur Paul Brousse", "timestamp": "2022-11-18T17:27:06.459000Z"}, {"empty_slots": 11, "extra": {"banking": true, "ebikes": 2, "last_updated": 1668791612, "payment": ["creditcard"], "payment-terminal": true, "renting": 1, "returning": 1, "slots": 29, "station_id": 128930462, "uid": "8016"}, "free_bikes": 15, "id": "67447a40039cae5e6f47f8ffb8fd2b26", "latitude": 48.87320440102894, "longitude": 2.323658830743138, "name": "Square Louis XVI", "timestamp": "2022-11-18T17:27:04.762000Z"}, {"empty_slots": 20, "extra": {"banking": false, "ebikes": 2, "last_updated": 1668791466, "payment-terminal": false, "renting": 1, "returning": 1, "slots": 22, "station_id": 1057228658, "uid": "48003"}, "free_bikes": 2, "id": "55d766b2cfd797e5962b8a5133cb9a33", "latitude": 48.78448485079149, "longitude": 2.35908430069685, "name": "Youri Gagarine - Karl Marx", "timestamp": "2022-11-18T17:27:03.431000Z"}, {"empty_slots": 21, "extra": {"banking": false, "ebikes": 0, "last_updated": 1668791628, "payment-terminal": false, "renting": 1, "returning": 1, "slots": 21, "station_id": 230873471, "uid": "16110"}, "free_bikes": 0, "id": "99678a6a0780e479f54c08a1305d2a2a", "latitude": 48.86106902949534, "longitude": 2.2730283066630363, "name": "Octave Feuillet - Alb\u00e9ric Magnard", "timestamp": "2022-11-18T17:27:05.954000Z"}, {"empty_slots": 25, "extra": {"banking": false, "ebikes": 0, "last_updated": 1668791554, "payment-terminal": false, "renting": 1, "returning": 1, "slots": 25, "station_id": 507934805, "uid": "18134"}, "free_bikes": 0, "id": "a5816027f41b2799e91b665c95e1938d", "latitude": 48.8978867, "longitude": 2.3458001, "name": "Ney - Porte de Clignancourt ", "timestamp": "2022-11-18T17:27:05.849000Z"}, {"empty_slots": 21, "extra": {"banking": false, "ebikes": 2, "last_updated": 1668791637, "payment-terminal": false, "renting": 1, "returning": 1, "slots": 24, "station_id": 7254, "uid": "5005"}, "free_bikes": 3, "id": "18d63d7f1b3c402d11816c5f07658e57", "latitude": 48.844730256132095, "longitude": 2.341923944866407, "name": "Gay Lussac - Saint-Jacques", "timestamp": "2022-11-18T17:27:06.420000Z"}, {"empty_slots": 27, "extra": {"banking": true, "ebikes": 8, "last_updated": 1668791574, "payment": ["creditcard"], "payment-terminal": true, "renting": 1, "returning": 1, "slots": 50, "station_id": 129164969, "uid": "43009"}, "free_bikes": 22, "id": "27c45001b48e6b0c3965b412f618d813", "latitude": 48.8468428626593, "longitude": 2.452062070369721, "name": "Place Jean-Spire-Lema\u00eetre", "timestamp": "2022-11-18T17:27:03.157000Z"}, {"empty_slots": 23, "extra": {"banking": false, "ebikes": 0, "last_updated": 1668791561, "payment-terminal": false, "renting": 1, "returning": 1, "slots": 29, "station_id": 128989986, "uid": "8053"}, "free_bikes": 5, "id": "9e88938078e837e55a03cf6193682de5", "latitude": 48.874750203956566, "longitude": 2.301771435325988, "name": "Place Georges Guillaumin", "timestamp": "2022-11-18T17:27:06.130000Z"}, {"empty_slots": 15, "extra": {"banking": true, "ebikes": 0, "last_updated": 1668791638, "payment": ["creditcard"], "payment-terminal": true, "renting": 1, "returning": 1, "slots": 17, "station_id": 129004826, "uid": "9001"}, "free_bikes": 2, "id": "4264d28f99b033dcae11a325376f75b1", "latitude": 48.87759897050706, "longitude": 2.348463758826256, "name": "Bellefond - Poissonni\u00e8re", "timestamp": "2022-11-18T17:27:05.249000Z"}, {"empty_slots": 15, "extra": {"banking": false, "ebikes": 1, "last_updated": 1668791625, "payment-terminal": false, "renting": 1, "returning": 1, "slots": 21, "station_id": 518825709, "uid": "17032"}, "free_bikes": 6, "id": "67b871714c5747e4b27c22703cf13013", "latitude": 48.88655580065981, "longitude": 2.288640439510346, "name": "Jean Oestreicher - Porte de Champerret", "timestamp": "2022-11-18T17:27:03.305000Z"}, {"empty_slots": 21, "extra": {"banking": true, "ebikes": 1, "last_updated": 1668791620, "payment": ["creditcard"], "payment-terminal": true, "renting": 1, "returning": 1, "slots": 24, "station_id": 911767210, "uid": "10162"}, "free_bikes": 2, "id": "ffebae556fb025e5425befa8f1a43308", "latitude": 48.87935941942529, "longitude": 2.366596162319184, "name": "Alexandre Parodi - Quai de Valmy", "timestamp": "2022-11-18T17:27:05.512000Z"}, {"empty_slots": 17, "extra": {"banking": false, "ebikes": 0, "last_updated": 1668791561, "payment-terminal": false, "renting": 1, "returning": 1, "slots": 19, "station_id": 128887067, "uid": "7018"}, "free_bikes": 2, "id": "a41c910adee6a07881812ef4abcd1e5d", "latitude": 48.851419978983, "longitude": 2.3097044974566, "name": "S\u00e9gur - d'Estr\u00e9es", "timestamp": "2022-11-18T17:27:03.610000Z"}, {"empty_slots": 24, "extra": {"banking": false, "ebikes": 1, "last_updated": 1668791446, "payment-terminal": false, "renting": 1, "returning": 1, "slots": 27, "station_id": 54000565, "uid": "10115"}, "free_bikes": 2, "id": "415e59bd5a8ba4b267518de1c81f0cd2", "latitude": 48.8761373390584, "longitude": 2.3680844979417, "name": "Granges aux Belles", "timestamp": "2022-11-18T17:27:06.222000Z"}, {"empty_slots": 34, "extra": {"banking": false, "ebikes": 4, "last_updated": 1668791573, "payment-terminal": false, "renting": 1, "returning": 1, "slots": 63, "station_id": 1057296253, "uid": "13118"}, "free_bikes": 26, "id": "8a5aed60fc8805d38fdc6f00088538bf", "latitude": 48.82435782216384, "longitude": 2.377065159380436, "name": "Regnault - Patay", "timestamp": "2022-11-18T17:27:04.371000Z"}, {"empty_slots": 16, "extra": {"banking": true, "ebikes": 2, "last_updated": 1668791632, "payment": ["creditcard"], "payment-terminal": true, "renting": 1, "returning": 1, "slots": 44, "station_id": 210581084, "uid": "9035"}, "free_bikes": 4, "id": "0f3ac6a9fb5eb3f43e1a0c1980f05f4a", "latitude": 48.877753, "longitude": 2.327339, "name": "Gare Saint-Lazare - Place de Budapest", "timestamp": "2022-11-18T17:27:05.492000Z"}, {"empty_slots": 43, "extra": {"banking": true, "ebikes": 1, "last_updated": 1668791603, "payment": ["creditcard"], "payment-terminal": true, "renting": 1, "returning": 1, "slots": 46, "station_id": 205047993, "uid": "14002"}, "free_bikes": 3, "id": "894197f05300286868f6ed8858a881c1", "latitude": 48.83940266673835, "longitude": 2.32971478253603, "name": "Edgar Quinet - Raspail", "timestamp": "2022-11-18T17:27:03.539000Z"}, {"empty_slots": 25, "extra": {"banking": true, "ebikes": 4, "last_updated": 1668791372, "payment": ["creditcard"], "payment-terminal": true, "renting": 1, "returning": 1, "slots": 35, "station_id": 102311820, "uid": "18024"}, "free_bikes": 8, "id": "da851a915c41eb46abc46b738d798530", "latitude": 48.891457726153774, "longitude": 2.348636478060487, "name": "Clignancourt - Ordener", "timestamp": "2022-11-18T17:27:03.487000Z"}, {"empty_slots": 20, "extra": {"banking": false, "ebikes": 2, "last_updated": 1668791619, "payment-terminal": false, "renting": 1, "returning": 1, "slots": 24, "station_id": 210586093, "uid": "10029"}, "free_bikes": 2, "id": "4c195e576b892f6d3350a36e59a52ff3", "latitude": 48.880726, "longitude": 2.351464, "name": "Dunkerque - Rocroy", "timestamp": "2022-11-18T17:27:03.716000Z"}, {"empty_slots": 7, "extra": {"banking": true, "ebikes": 4, "last_updated": 1668791639, "payment": ["creditcard"], "payment-terminal": true, "renting": 1, "returning": 1, "slots": 14, "station_id": 210574471, "uid": "9002"}, "free_bikes": 4, "id": "012b17de09d1300f63c8b63067b39063", "latitude": 48.879223, "longitude": 2.349147, "name": "Abbeville - Faubourg Poissonni\u00e8re", "timestamp": "2022-11-18T17:27:06.438000Z"}, {"empty_slots": 19, "extra": {"banking": true, "ebikes": 1, "last_updated": 1668791553, "payment": ["creditcard"], "payment-terminal": true, "renting": 1, "returning": 1, "slots": 20, "station_id": 72765603, "uid": "5022"}, "free_bikes": 1, "id": "c6a39a31a86611c31fb3c34bae46e8f5", "latitude": 48.8462904, "longitude": 2.3521495, "name": "Boulangers - Cardinal Lemoine", "timestamp": "2022-11-18T17:27:04.467000Z"}, {"empty_slots": 11, "extra": {"banking": false, "ebikes": 2, "last_updated": 1668791437, "payment-terminal": false, "renting": 1, "returning": 1, "slots": 14, "station_id": 210582921, "uid": "9106"}, "free_bikes": 3, "id": "de40d516ab36b574ee1990157165d4ef", "latitude": 48.87219, "longitude": 2.329423, "name": "Boudreau - Auber", "timestamp": "2022-11-18T17:27:06.594000Z"}, {"empty_slots": 20, "extra": {"banking": true, "ebikes": 1, "last_updated": 1668791629, "payment": ["creditcard"], "payment-terminal": true, "renting": 1, "returning": 1, "slots": 32, "station_id": 369644630, "uid": "10161"}, "free_bikes": 9, "id": "b12be68f3b9115784f498398517c80a0", "latitude": 48.875642647477, "longitude": 2.3594588041306, "name": "Gare de l'Est - Faubourg-Saint-Martin", "timestamp": "2022-11-18T17:27:05.030000Z"}, {"empty_slots": 43, "extra": {"banking": true, "ebikes": 4, "last_updated": 1668791638, "payment": ["creditcard"], "payment-terminal": true, "renting": 1, "returning": 1, "slots": 48, "station_id": 43255030, "uid": "17040"}, "free_bikes": 5, "id": "782947ad7a5d7a2455bb62bb3f1647b9", "latitude": 48.87973954830735, "longitude": 2.288012132048607, "name": "Pereire - Ternes", "timestamp": "2022-11-18T17:27:02.902000Z"}, {"empty_slots": 25, "extra": {"banking": false, "ebikes": 1, "last_updated": 1668791597, "payment-terminal": false, "renting": 1, "returning": 1, "slots": 27, "station_id": 129025451, "uid": "9038"}, "free_bikes": 1, "id": "557a0531c4372aa3abe987d7052a8cc7", "latitude": 48.88320784122797, "longitude": 2.3308449949028507, "name": "Douai - Bruxelles", "timestamp": "2022-11-18T17:27:02.949000Z"}, {"empty_slots": 6, "extra": {"banking": true, "ebikes": 3, "last_updated": 1668780183, "payment": ["creditcard"], "payment-terminal": true, "renting": 1, "returning": 1, "slots": 41, "station_id": 128889359, "uid": "7020"}, "free_bikes": 34, "id": "0b0c4f4ae8c238e0b7eaad2c9a2a9325", "latitude": 48.856691550115315, "longitude": 2.306646779179573, "name": "Champ de Mars - Cler", "timestamp": "2022-11-18T17:27:04.705000Z"}, {"empty_slots": 10, "extra": {"banking": true, "ebikes": 1, "last_updated": 1668791481, "payment": ["creditcard"], "payment-terminal": true, "renting": 1, "returning": 1, "slots": 17, "station_id": 323616530, "uid": "1001"}, "free_bikes": 4, "id": "fe6481666c6964991af2fec0b5573fd3", "latitude": 48.857058739111096, "longitude": 2.341798283943937, "name": "Quai de l'Horloge - Pont Neuf", "timestamp": "2022-11-18T17:27:06.740000Z"}, {"empty_slots": 19, "extra": {"banking": true, "ebikes": 3, "last_updated": 1668791592, "payment": ["creditcard"], "payment-terminal": true, "renting": 1, "returning": 1, "slots": 27, "station_id": 128920403, "uid": "8009"}, "free_bikes": 6, "id": "aa7ead9254a3eeddc94f3a0c1f5401f1", "latitude": 48.874777677621296, "longitude": 2.326515804784655, "name": "Gare Saint-Lazare - Isly", "timestamp": "2022-11-18T17:27:02.722000Z"}, {"empty_slots": 11, "extra": {"banking": false, "ebikes": 3, "last_updated": 1668791642, "payment-terminal": false, "renting": 1, "returning": 1, "slots": 17, "station_id": 208795867, "uid": "19105"}, "free_bikes": 3, "id": "fe416377651bc1716038b396302b77e0", "latitude": 48.883667, "longitude": 2.395733, "name": "Ambroise Rendu - Porte Brunet", "timestamp": "2022-11-18T17:27:05.916000Z"}, {"empty_slots": 4, "extra": {"banking": true, "ebikes": 15, "last_updated": 1668791615, "payment": ["creditcard"], "payment-terminal": true, "renting": 1, "returning": 1, "slots": 60, "station_id": 66491397, "uid": "12151"}, "free_bikes": 55, "id": "6cbe15611593e1cffd0a9abf54aeffc8", "latitude": 48.845515089794, "longitude": 2.3726498446286, "name": "Gare de Lyon - Place Louis Armand", "timestamp": "2022-11-18T17:27:04.956000Z"}, {"empty_slots": 13, "extra": {"banking": true, "ebikes": 0, "last_updated": 1668791636, "payment": ["creditcard"], "payment-terminal": true, "renting": 1, "returning": 1, "slots": 17, "station_id": 6296, "uid": "6001"}, "free_bikes": 2, "id": "a9bc03f19bd965f2edd21e4292c15c67", "latitude": 48.85761567856468, "longitude": 2.335831353037739, "name": "Institut de France", "timestamp": "2022-11-18T17:27:05.882000Z"}, {"empty_slots": 16, "extra": {"banking": false, "ebikes": 4, "last_updated": 1668791614, "payment-terminal": false, "renting": 1, "returning": 1, "slots": 23, "station_id": 521393180, "uid": "17008"}, "free_bikes": 5, "id": "d69e6c49d6c6695f57da105b15f25945", "latitude": 48.8978765, "longitude": 2.3230632, "name": "Porte Pouchet-Bessi\u00e8res", "timestamp": "2022-11-18T17:27:04.984000Z"}, {"empty_slots": 19, "extra": {"banking": false, "ebikes": 1, "last_updated": 1668791552, "payment-terminal": false, "renting": 1, "returning": 1, "slots": 24, "station_id": 576188379, "uid": "15112"}, "free_bikes": 5, "id": "cd91e4c9d707d0bebb4bd6677305110e", "latitude": 48.838683941628375, "longitude": 2.3110422492027287, "name": "Vig\u00e9e-Lebrun - Anselme Payen", "timestamp": "2022-11-18T17:27:04.396000Z"}, {"empty_slots": 15, "extra": {"banking": true, "ebikes": 3, "last_updated": 1668791639, "payment": ["creditcard"], "payment-terminal": true, "renting": 1, "returning": 1, "slots": 40, "station_id": 128882438, "uid": "5020"}, "free_bikes": 21, "id": "fd8468cc02da7b7af7e2595ecb6732c7", "latitude": 48.849063299501, "longitude": 2.3558086529374, "name": "Institut du Monde Arabe - Saint-Germain", "timestamp": "2022-11-18T17:27:03.725000Z"}, {"empty_slots": 9, "extra": {"banking": true, "ebikes": 9, "last_updated": 1668791538, "payment": ["creditcard"], "payment-terminal": true, "renting": 1, "returning": 1, "slots": 33, "station_id": 128915891, "uid": "7025"}, "free_bikes": 22, "id": "b88622fa2683838b0565e7e0be139d6e", "latitude": 48.856502977696, "longitude": 2.2931787543289, "name": "Octave Gr\u00e9ard - Tour Eiffel", "timestamp": "2022-11-18T17:27:05.961000Z"}, {"empty_slots": 3, "extra": {"banking": false, "ebikes": 0, "last_updated": 1668588838, "payment-terminal": false, "renting": 0, "returning": 0, "slots": 26, "station_id": 82567101, "uid": "31706"}, "free_bikes": 0, "id": "c6cd3ee1a82b246c5cb86035faa68d1a", "latitude": 48.862923800596, "longitude": 2.4155035614967, "name": "Ch\u00e2teau - R\u00e9publique", "timestamp": "2022-11-18T17:27:06.798000Z"}, {"empty_slots": 31, "extra": {"banking": false, "ebikes": 2, "last_updated": 1668791546, "payment-terminal": false, "renting": 1, "returning": 1, "slots": 34, "station_id": 230877798, "uid": "18107"}, "free_bikes": 2, "id": "f4eef18fca1505fcf19873c2f29849bd", "latitude": 48.8847601, "longitude": 2.3534657, "name": "Chartres - La Charbonni\u00e8re", "timestamp": "2022-11-18T17:27:03.744000Z"}, {"empty_slots": 27, "extra": {"banking": true, "ebikes": 6, "last_updated": 1668791408, "payment": ["creditcard"], "payment-terminal": true, "renting": 1, "returning": 1, "slots": 33, "station_id": 82379648, "uid": "8036"}, "free_bikes": 6, "id": "e2671fe4b8fcccbbeeaaab7ef7ec9ff0", "latitude": 48.87745567681383, "longitude": 2.309694221419506, "name": "Lisbonne - Monceau", "timestamp": "2022-11-18T17:27:02.485000Z"}, {"empty_slots": 12, "extra": {"banking": false, "ebikes": 3, "last_updated": 1668791514, "payment-terminal": false, "renting": 1, "returning": 1, "slots": 17, "station_id": 129021753, "uid": "9028"}, "free_bikes": 5, "id": "8d5e18ea3b29e7080dc930aeea34b28d", "latitude": 48.88006587474148, "longitude": 2.3310810327529907, "name": "Moncey - Blanche", "timestamp": "2022-11-18T17:27:05.628000Z"}, {"empty_slots": 17, "extra": {"banking": true, "ebikes": 1, "last_updated": 1668791375, "payment": ["creditcard"], "payment-terminal": true, "renting": 1, "returning": 1, "slots": 24, "station_id": 129011497, "uid": "9010"}, "free_bikes": 5, "id": "27bde1c8b2832e7f88b2c34a98ec4404", "latitude": 48.876719895109, "longitude": 2.344393021853951, "name": "Rochechouart lamartine", "timestamp": "2022-11-18T17:27:04.286000Z"}, {"empty_slots": 8, "extra": {"banking": true, "ebikes": 2, "last_updated": 1668791522, "payment": ["creditcard"], "payment-terminal": true, "renting": 1, "returning": 1, "slots": 15, "station_id": 35642049, "uid": "10025"}, "free_bikes": 3, "id": "c112a52278dd51eab5e8e5714fe9ec8e", "latitude": 48.87748519186726, "longitude": 2.3660067468881607, "name": "Jemmapes - Ecluses Saint-Martin", "timestamp": "2022-11-18T17:27:06.104000Z"}, {"empty_slots": 7, "extra": {"banking": true, "ebikes": 8, "last_updated": 1668791559, "payment": ["creditcard"], "payment-terminal": true, "renting": 1, "returning": 1, "slots": 24, "station_id": 50191171, "uid": "19015"}, "free_bikes": 14, "id": "c923203a02ef3af397694f3c550a182c", "latitude": 48.88917613743794, "longitude": 2.3833653330802917, "name": "Thionville - Ourcq", "timestamp": "2022-11-18T17:27:06.138000Z"}, {"empty_slots": 44, "extra": {"banking": false, "ebikes": 2, "last_updated": 1668791608, "payment-terminal": false, "renting": 1, "returning": 1, "slots": 49, "station_id": 210740080, "uid": "10107"}, "free_bikes": 4, "id": "bdb86d14e2bd6354e7aa1e7c7610acd4", "latitude": 48.881949, "longitude": 2.352339, "name": "Gare du Nord - H\u00f4pital Lariboisi\u00e8re", "timestamp": "2022-11-18T17:27:02.479000Z"}, {"empty_slots": 31, "extra": {"banking": true, "ebikes": 1, "last_updated": 1668791626, "payment": ["creditcard"], "payment-terminal": true, "renting": 1, "returning": 1, "slots": 40, "station_id": 129087587, "uid": "17004"}, "free_bikes": 7, "id": "03da963d41687bb7670f411eab74036c", "latitude": 48.88896161855884, "longitude": 2.322528975094376, "name": "Legendre - Clichy", "timestamp": "2022-11-18T17:27:05.850000Z"}, {"empty_slots": 17, "extra": {"banking": true, "ebikes": 3, "last_updated": 1668791640, "payment": ["creditcard"], "payment-terminal": true, "renting": 1, "returning": 1, "slots": 24, "station_id": 213693511, "uid": "19003"}, "free_bikes": 5, "id": "c503eafcf1cc851ff3626fe92a7d0f9a", "latitude": 48.884492238407525, "longitude": 2.3703941702842717, "name": "Quai de la Seine", "timestamp": "2022-11-18T17:27:05.017000Z"}, {"empty_slots": 7, "extra": {"banking": true, "ebikes": 2, "last_updated": 1668791592, "payment": ["creditcard"], "payment-terminal": true, "renting": 1, "returning": 1, "slots": 18, "station_id": 95845524, "uid": "10008"}, "free_bikes": 8, "id": "226a0d91ca8223376402711fd4838710", "latitude": 48.870702423554306, "longitude": 2.358739863900845, "name": "Cit\u00e9 Riverin - Ch\u00e2teau d'Eau", "timestamp": "2022-11-18T17:27:06.456000Z"}, {"empty_slots": 9, "extra": {"banking": true, "ebikes": 3, "last_updated": 1668791633, "payment": ["creditcard"], "payment-terminal": true, "renting": 1, "returning": 1, "slots": 37, "station_id": 37815993, "uid": "5018"}, "free_bikes": 23, "id": "3cc2baaa200956820d5c8251505afd0e", "latitude": 48.848225572724, "longitude": 2.3502873256803, "name": "Mutualit\u00e9", "timestamp": "2022-11-18T17:27:03.177000Z"}, {"empty_slots": 21, "extra": {"banking": false, "ebikes": 0, "last_updated": 1668791568, "payment-terminal": false, "renting": 1, "returning": 1, "slots": 33, "station_id": 129014600, "uid": "9022"}, "free_bikes": 9, "id": "e911d07b60f6a50248e5db3bb3e23668", "latitude": 48.87334627510507, "longitude": 2.337980867701675, "name": "Rossini - Laffitte", "timestamp": "2022-11-18T17:27:06.141000Z"}, {"empty_slots": 40, "extra": {"banking": false, "ebikes": 0, "last_updated": 1668791539, "payment-terminal": false, "renting": 1, "returning": 1, "slots": 40, "station_id": 102324803, "uid": "20042"}, "free_bikes": 0, "id": "0ee885234307805f3d12d98e8c016fa1", "latitude": 48.872010281270974, "longitude": 2.392039597034455, "name": "Pyr\u00e9n\u00e9es - Emmery", "timestamp": "2022-11-18T17:27:06.005000Z"}, {"empty_slots": 22, "extra": {"banking": true, "ebikes": 6, "last_updated": 1668791509, "payment": ["creditcard"], "payment-terminal": true, "renting": 1, "returning": 1, "slots": 44, "station_id": 912377361, "uid": "12161"}, "free_bikes": 19, "id": "d40c98f308326f0b185cf41bb9a394ac", "latitude": 48.847208456061, "longitude": 2.3861273378134, "name": "Diderot - Reuilly", "timestamp": "2022-11-18T17:27:02.971000Z"}, {"empty_slots": 37, "extra": {"banking": true, "ebikes": 0, "last_updated": 1668791639, "payment": ["creditcard"], "payment-terminal": true, "renting": 1, "returning": 1, "slots": 38, "station_id": 54000569, "uid": "11027"}, "free_bikes": 0, "id": "acdd3a2005f56b2d29fe9be35e2a7b17", "latitude": 48.862147844548, "longitude": 2.3772348091006, "name": "Saint-Ambroise - Parmentier", "timestamp": "2022-11-18T17:27:06.228000Z"}, {"empty_slots": 38, "extra": {"banking": true, "ebikes": 1, "last_updated": 1668791612, "payment": ["creditcard"], "payment-terminal": true, "renting": 1, "returning": 1, "slots": 39, "station_id": 80216231, "uid": "17043"}, "free_bikes": 1, "id": "768ddc2b2ca4a55976019dd0b9f6433d", "latitude": 48.88022154052015, "longitude": 2.2854680567979813, "name": "Belidor - Gouvion-Saint-Cyr", "timestamp": "2022-11-18T17:27:01.583000Z"}, {"empty_slots": 18, "extra": {"banking": true, "ebikes": 0, "last_updated": 1668791473, "payment": ["creditcard"], "payment-terminal": true, "renting": 1, "returning": 1, "slots": 22, "station_id": 34742973, "uid": "15056"}, "free_bikes": 4, "id": "6ab04d33c2786fdee83912ebd000afe1", "latitude": 48.836395736424, "longitude": 2.2784192115068, "name": "Place Balard", "timestamp": "2022-11-18T17:27:02.233000Z"}, {"empty_slots": 15, "extra": {"banking": false, "ebikes": 1, "last_updated": 1668791265, "payment-terminal": false, "renting": 1, "returning": 1, "slots": 17, "station_id": 336511521, "uid": "19026"}, "free_bikes": 2, "id": "87f0c36c975001dfef7afda904d36892", "latitude": 48.88192765861766, "longitude": 2.392586767673493, "name": "Place de Rhin et Danube", "timestamp": "2022-11-18T17:27:01.913000Z"}, {"empty_slots": 4, "extra": {"banking": true, "ebikes": 8, "last_updated": 1668791576, "payment": ["creditcard"], "payment-terminal": true, "renting": 1, "returning": 1, "slots": 23, "station_id": 129043651, "uid": "11002"}, "free_bikes": 17, "id": "cfe8facd91fe4fcbc173fe6b051e0524", "latitude": 48.85507930579506, "longitude": 2.3733686318721463, "name": "Roquette - Thi\u00e9r\u00e9", "timestamp": "2022-11-18T17:27:03.959000Z"}, {"empty_slots": 26, "extra": {"banking": false, "ebikes": 0, "last_updated": 1668791632, "payment-terminal": false, "renting": 1, "returning": 1, "slots": 35, "station_id": 39296638, "uid": "8034"}, "free_bikes": 6, "id": "b11592abb8ce4ddfe3e9739a7bc5cd4e", "latitude": 48.874746047357135, "longitude": 2.3082953318953514, "name": "Berri - Haussmann", "timestamp": "2022-11-18T17:27:06.686000Z"}, {"empty_slots": 34, "extra": {"banking": true, "ebikes": 3, "last_updated": 1668791583, "payment": ["creditcard"], "payment-terminal": true, "renting": 1, "returning": 1, "slots": 46, "station_id": 129048000, "uid": "11023"}, "free_bikes": 9, "id": "7caaf63216ae02be12a826198641e5a6", "latitude": 48.858688774062955, "longitude": 2.383553994571467, "name": "Saint-Maur - Roquette", "timestamp": "2022-11-18T17:27:06.617000Z"}, {"empty_slots": 19, "extra": {"banking": false, "ebikes": 13, "last_updated": 1668791585, "payment-terminal": false, "renting": 1, "returning": 1, "slots": 36, "station_id": 1062250686, "uid": "45003"}, "free_bikes": 17, "id": "f696f217a77bc8b7e96864fee9ba937d", "latitude": 48.80889533774377, "longitude": 2.5382421165704727, "name": "11 Novembre 1918 - 8 Mai 1945", "timestamp": "2022-11-18T17:27:03.541000Z"}, {"empty_slots": 26, "extra": {"banking": false, "ebikes": 0, "last_updated": 1668791642, "payment-terminal": false, "renting": 1, "returning": 1, "slots": 26, "station_id": 261987383, "uid": "31009"}, "free_bikes": 0, "id": "508b6b7baae451f439f9dd5486fba870", "latitude": 48.8687591, "longitude": 2.4329931, "name": "Place Du G\u00e9n\u00e9ral De Gaulle", "timestamp": "2022-11-18T17:27:06.382000Z"}, {"empty_slots": 35, "extra": {"banking": true, "ebikes": 1, "last_updated": 1668791529, "payment": ["creditcard"], "payment-terminal": true, "renting": 1, "returning": 1, "slots": 49, "station_id": 82562556, "uid": "16039"}, "free_bikes": 12, "id": "2f1849de3b0950efa3c1f6ff643e1dc3", "latitude": 48.84097491091973, "longitude": 2.264390252530575, "name": "Exelmans - Versailles", "timestamp": "2022-11-18T17:27:04.126000Z"}, {"empty_slots": 18, "extra": {"banking": true, "ebikes": 0, "last_updated": 1668791618, "payment": ["creditcard"], "payment-terminal": true, "renting": 1, "returning": 1, "slots": 23, "station_id": 126050442, "uid": "17030"}, "free_bikes": 4, "id": "5b5eb9e7584013b19ee1436863a9847f", "latitude": 48.88364782887555, "longitude": 2.2952447086572647, "name": "Pereire - Rennequin", "timestamp": "2022-11-18T17:27:01.573000Z"}, {"empty_slots": 8, "extra": {"banking": true, "ebikes": 4, "last_updated": 1668791618, "payment": ["creditcard"], "payment-terminal": true, "renting": 1, "returning": 1, "slots": 18, "station_id": 210749865, "uid": "13001"}, "free_bikes": 9, "id": "1bcceac18c43cbd011a06e94e834004a", "latitude": 48.8376682728114, "longitude": 2.344813834660711, "name": "Port-Royal - H\u00f4pital du Val-de-Gr\u00e2ce", "timestamp": "2022-11-18T17:27:03.690000Z"}, {"empty_slots": 21, "extra": {"banking": false, "ebikes": 2, "last_updated": 1668791583, "payment-terminal": false, "renting": 1, "returning": 1, "slots": 27, "station_id": 27363489, "uid": "12111"}, "free_bikes": 5, "id": "036690096dedbfd7f1935ac0092059fe", "latitude": 48.83761417037952, "longitude": 2.397253782195704, "name": "Claude Decaen - Cannebi\u00e8re", "timestamp": "2022-11-18T17:27:04.912000Z"}, {"empty_slots": 2, "extra": {"banking": true, "ebikes": 2, "last_updated": 1668791634, "payment": ["creditcard"], "payment-terminal": true, "renting": 1, "returning": 1, "slots": 14, "station_id": 210753033, "uid": "13014"}, "free_bikes": 11, "id": "22f639abbb0f8eec55bae6cb153ceef8", "latitude": 48.842524, "longitude": 2.364044, "name": "Gare d'Austerlitz", "timestamp": "2022-11-18T17:27:05.473000Z"}, {"empty_slots": 0, "extra": {"banking": true, "ebikes": 2, "last_updated": 1668791641, "payment": ["creditcard"], "payment-terminal": true, "renting": 1, "returning": 1, "slots": 12, "station_id": 101763163, "uid": "15067"}, "free_bikes": 12, "id": "dbb7e83a4d2d4319bffa00d41ab333c5", "latitude": 48.852804604940296, "longitude": 2.293077029857222, "name": "Desaix - Edgar Faure", "timestamp": "2022-11-18T17:27:03.519000Z"}, {"empty_slots": 33, "extra": {"banking": false, "ebikes": 4, "last_updated": 1668791570, "payment-terminal": false, "renting": 1, "returning": 1, "slots": 53, "station_id": 205938683, "uid": "19043"}, "free_bikes": 19, "id": "3d73de49edcca885c3a7853f26193b02", "latitude": 48.893923963057865, "longitude": 2.39790290594101, "name": "Delphine Seyrig - G\u00e9n\u00e9ral Leclerc", "timestamp": "2022-11-18T17:27:06.803000Z"}, {"empty_slots": 32, "extra": {"banking": false, "ebikes": 5, "last_updated": 1668791469, "payment-terminal": false, "renting": 1, "returning": 1, "slots": 39, "station_id": 210399835, "uid": "5032"}, "free_bikes": 7, "id": "55a74d7a373b87349702949cca7ba8ab", "latitude": 48.84702057165222, "longitude": 2.3464982619671075, "name": "Panth\u00e9on - Valette", "timestamp": "2022-11-18T17:27:04.729000Z"}, {"empty_slots": 56, "extra": {"banking": false, "ebikes": 0, "last_updated": 1668791572, "payment-terminal": false, "renting": 1, "returning": 1, "slots": 58, "station_id": 1057324291, "uid": "14020"}, "free_bikes": 2, "id": "c2c3ca9df7a03119c615cd43d48502cc", "latitude": 48.822009, "longitude": 2.322188699, "name": "Cimeti\u00e8re de Montrouge", "timestamp": "2022-11-18T17:27:06.536000Z"}, {"empty_slots": 11, "extra": {"banking": false, "ebikes": 4, "last_updated": 1668791580, "payment-terminal": false, "renting": 1, "returning": 1, "slots": 24, "station_id": 13718041, "uid": "19101"}, "free_bikes": 5, "id": "6d5f0ea757d3d4afdd55dfbee5e5c64e", "latitude": 48.8750898883217, "longitude": 2.3826304078102116, "name": "Square Simon Bolivar", "timestamp": "2022-11-18T17:27:04.707000Z"}, {"empty_slots": 13, "extra": {"banking": false, "ebikes": 2, "last_updated": 1668791633, "payment-terminal": false, "renting": 1, "returning": 1, "slots": 17, "station_id": 129034587, "uid": "10016"}, "free_bikes": 2, "id": "acd91d023955ffa2985c8862fa796cdd", "latitude": 48.875034655883944, "longitude": 2.359801238597928, "name": "R\u00e9collets - Square Villemin", "timestamp": "2022-11-18T17:27:03.634000Z"}, {"empty_slots": 11, "extra": {"banking": false, "ebikes": 6, "last_updated": 1668791612, "payment-terminal": false, "renting": 1, "returning": 1, "slots": 30, "station_id": 813544903, "uid": "11047"}, "free_bikes": 18, "id": "3b7771b8286349881fb9e5b67577eed5", "latitude": 48.86114216276092, "longitude": 2.367799618107727, "name": "Amelot - Saint-S\u00e9bastien", "timestamp": "2022-11-18T17:27:05.440000Z"}, {"empty_slots": 30, "extra": {"banking": true, "ebikes": 7, "last_updated": 1668791610, "payment": ["creditcard"], "payment-terminal": true, "renting": 1, "returning": 1, "slots": 42, "station_id": 27414601, "uid": "7014"}, "free_bikes": 12, "id": "8e9a06c5972efc20de0b1c9e42dd2483", "latitude": 48.85154484769, "longitude": 2.3146149516106, "name": "Saint-Fran\u00e7ois-Xavier", "timestamp": "2022-11-18T17:27:04.426000Z"}, {"empty_slots": 9, "extra": {"banking": true, "ebikes": 5, "last_updated": 1668791557, "payment": ["creditcard"], "payment-terminal": true, "renting": 1, "returning": 1, "slots": 32, "station_id": 230952057, "uid": "42014"}, "free_bikes": 22, "id": "c3250e94d8848caf3f29646b63ca09a3", "latitude": 48.81411442356866, "longitude": 2.39090770483017, "name": "Place Marcel Cachin", "timestamp": "2022-11-18T17:27:03.933000Z"}, {"empty_slots": 33, "extra": {"banking": false, "ebikes": 0, "last_updated": 1668791638, "payment-terminal": false, "renting": 1, "returning": 1, "slots": 34, "station_id": 508042092, "uid": "12128"}, "free_bikes": 1, "id": "cd69b7db0fd7ebeee93947815fa06b25", "latitude": 48.82237977153955, "longitude": 2.4586871266365056, "name": "Pyramide - Ecole du Breuil ", "timestamp": "2022-11-18T17:27:06.164000Z"}, {"empty_slots": 13, "extra": {"banking": false, "ebikes": 3, "last_updated": 1668791635, "payment-terminal": false, "renting": 1, "returning": 1, "slots": 17, "station_id": 42603855, "uid": "8010"}, "free_bikes": 3, "id": "9b91251c38bc1e4e1879ad831cfedad9", "latitude": 48.8795431, "longitude": 2.3264628, "name": "Li\u00e8ge - Moscou", "timestamp": "2022-11-18T17:27:05.320000Z"}, {"empty_slots": 48, "extra": {"banking": true, "ebikes": 2, "last_updated": 1668791642, "payment": ["creditcard"], "payment-terminal": true, "renting": 1, "returning": 1, "slots": 52, "station_id": 818302209, "uid": "31022"}, "free_bikes": 2, "id": "26a2b9a78176ab057ac5b826aea3df83", "latitude": 48.86131452758348, "longitude": 2.440614402294159, "name": "Mairie de Montreuil", "timestamp": "2022-11-18T17:27:04.016000Z"}, {"empty_slots": 48, "extra": {"banking": true, "ebikes": 1, "last_updated": 1668791632, "payment": ["creditcard"], "payment-terminal": true, "renting": 1, "returning": 1, "slots": 58, "station_id": 532054446, "uid": "11113"}, "free_bikes": 2, "id": "d69467838ced5f3d7d6af24fe371de30", "latitude": 48.8667175, "longitude": 2.3692541, "name": "Richard Lenoir - Republique", "timestamp": "2022-11-18T17:27:01.622000Z"}, {"empty_slots": 64, "extra": {"banking": true, "ebikes": 0, "last_updated": 1668791638, "payment": ["creditcard"], "payment-terminal": true, "renting": 1, "returning": 1, "slots": 68, "station_id": 581480367, "uid": "12157"}, "free_bikes": 1, "id": "a31aed60ff2963c8bfe4ff747e3c8cca", "latitude": 48.8471116, "longitude": 2.3956204, "name": "Fabre d'Eglantine - Place de la Nation", "timestamp": "2022-11-18T17:27:04.381000Z"}, {"empty_slots": 30, "extra": {"banking": true, "ebikes": 6, "last_updated": 1668791640, "payment": ["creditcard"], "payment-terminal": true, "renting": 1, "returning": 1, "slots": 43, "station_id": 102309973, "uid": "18003"}, "free_bikes": 10, "id": "7f19f458f67464338660a1e2ade3c48c", "latitude": 48.886472466141925, "longitude": 2.3328901827335358, "name": "Cimeti\u00e8re de Montmartre", "timestamp": "2022-11-18T17:27:01.566000Z"}, {"empty_slots": 20, "extra": {"banking": true, "ebikes": 1, "last_updated": 1668791643, "payment": ["creditcard"], "payment-terminal": true, "renting": 1, "returning": 1, "slots": 22, "station_id": 586539770, "uid": "21212"}, "free_bikes": 2, "id": "5ce3a63d2a483bbc9b80a9567237d8e7", "latitude": 48.81154270401601, "longitude": 2.303070724010468, "name": "Marne - Germain Dardan", "timestamp": "2022-11-18T17:27:02.341000Z"}, {"empty_slots": 27, "extra": {"banking": true, "ebikes": 3, "last_updated": 1668791499, "payment": ["creditcard"], "payment-terminal": true, "renting": 1, "returning": 1, "slots": 36, "station_id": 221043930, "uid": "20015"}, "free_bikes": 5, "id": "912eb7094e4ad06410e858d6cf1c2f35", "latitude": 48.85708641027236, "longitude": 2.3984125256538396, "name": "Bagnolet - Orteaux", "timestamp": "2022-11-18T17:27:06.503000Z"}, {"empty_slots": 17, "extra": {"banking": true, "ebikes": 7, "last_updated": 1668791639, "payment": ["creditcard"], "payment-terminal": true, "renting": 1, "returning": 1, "slots": 29, "station_id": 583539396, "uid": "33017"}, "free_bikes": 9, "id": "8684a922b92f476994b3017da087b7de", "latitude": 48.9155156, "longitude": 2.3814103, "name": "Anatole France - President Roosevelt", "timestamp": "2022-11-18T17:27:06.107000Z"}, {"empty_slots": 10, "extra": {"banking": false, "ebikes": 2, "last_updated": 1668791627, "payment-terminal": false, "renting": 1, "returning": 1, "slots": 16, "station_id": 101753100, "uid": "15042"}, "free_bikes": 6, "id": "626aae3b367a4cfa9dde9e771cd171e2", "latitude": 48.83372430280548, "longitude": 2.2713854536414146, "name": "Henry Farman", "timestamp": "2022-11-18T17:27:01.594000Z"}, {"empty_slots": 21, "extra": {"banking": true, "ebikes": 1, "last_updated": 1668791317, "payment": ["creditcard"], "payment-terminal": true, "renting": 1, "returning": 1, "slots": 22, "station_id": 27415466, "uid": "20112"}, "free_bikes": 1, "id": "d1d05b02773239aaf28322d7b646f520", "latitude": 48.87403113727167, "longitude": 2.38959476351738, "name": "Jourdain - Place des Grandes Rigoles", "timestamp": "2022-11-18T17:27:04.902000Z"}, {"empty_slots": 36, "extra": {"banking": true, "ebikes": 0, "last_updated": 1668791643, "payment": ["creditcard"], "payment-terminal": true, "renting": 1, "returning": 1, "slots": 65, "station_id": 88140066, "uid": "8017"}, "free_bikes": 24, "id": "a39734a757cc3e8405c726a31447ff3f", "latitude": 48.87590240712654, "longitude": 2.322616316378116, "name": "Rocher - Laborde", "timestamp": "2022-11-18T17:27:03.612000Z"}, {"empty_slots": 13, "extra": {"banking": false, "ebikes": 3, "last_updated": 1668791573, "payment-terminal": false, "renting": 1, "returning": 1, "slots": 25, "station_id": 66491385, "uid": "43008"}, "free_bikes": 10, "id": "d1da3c0f31aac127904cd3b60055381a", "latitude": 48.84780306364685, "longitude": 2.445141971111298, "name": "Fontenay - Lib\u00e9ration", "timestamp": "2022-11-18T17:27:04.941000Z"}, {"empty_slots": 45, "extra": {"banking": false, "ebikes": 3, "last_updated": 1668791507, "payment-terminal": false, "renting": 1, "returning": 1, "slots": 50, "station_id": 52393, "uid": "19044"}, "free_bikes": 5, "id": "a3e47b0db0706d8980ad5ce16e4697b2", "latitude": 48.89738369720229, "longitude": 2.3959985375404362, "name": "Grands Moulins de Pantin", "timestamp": "2022-11-18T17:27:03.905000Z"}, {"empty_slots": 23, "extra": {"banking": false, "ebikes": 0, "last_updated": 1668791621, "payment-terminal": false, "renting": 1, "returning": 1, "slots": 24, "station_id": 42517412, "uid": "20037"}, "free_bikes": 0, "id": "bf825ec63b2762a3c2e10f61cbefe5c5", "latitude": 48.871244610447015, "longitude": 2.4039056897163396, "name": "Gambetta - Saint Fargeau", "timestamp": "2022-11-18T17:27:05.458000Z"}, {"empty_slots": 14, "extra": {"banking": false, "ebikes": 1, "last_updated": 1668791636, "payment-terminal": false, "renting": 1, "returning": 1, "slots": 15, "station_id": 596813170, "uid": "41209"}, "free_bikes": 1, "id": "d9ab4e54af77924b8e6e4e0f8054af58", "latitude": 48.84706173362218, "longitude": 2.4787822365760808, "name": "Cimeti\u00e8re de Fontenay-sous-Bois", "timestamp": "2022-11-18T17:27:02.937000Z"}, {"empty_slots": 14, "extra": {"banking": false, "ebikes": 3, "last_updated": 1668791641, "payment-terminal": false, "renting": 1, "returning": 1, "slots": 18, "station_id": 209057581, "uid": "33102"}, "free_bikes": 3, "id": "315c13f5430fa293bc523362d2c9c64e", "latitude": 48.88633710236977, "longitude": 2.407338917255402, "name": "Gabriel P\u00e9ri - Francisco Ferrer", "timestamp": "2022-11-18T17:27:05.612000Z"}, {"empty_slots": 25, "extra": {"banking": true, "ebikes": 7, "last_updated": 1668791624, "payment": ["creditcard"], "payment-terminal": true, "renting": 1, "returning": 1, "slots": 58, "station_id": 66491389, "uid": "8045"}, "free_bikes": 31, "id": "660c4f1931862fb44696bdb9a0526799", "latitude": 48.86492098253841, "longitude": 2.302549182385926, "name": "Place de la Reine Astrid", "timestamp": "2022-11-18T17:27:04.949000Z"}, {"empty_slots": 28, "extra": {"banking": true, "ebikes": 1, "last_updated": 1668791383, "payment": ["creditcard"], "payment-terminal": true, "renting": 1, "returning": 1, "slots": 30, "station_id": 596872103, "uid": "21312"}, "free_bikes": 2, "id": "afd259141843f240d250d217854b95e7", "latitude": 48.818144834008976, "longitude": 2.271184623241425, "name": "Lucie Aubrac - Fort", "timestamp": "2022-11-18T17:27:03.895000Z"}, {"empty_slots": 37, "extra": {"banking": true, "ebikes": 1, "last_updated": 1668791638, "payment": ["creditcard"], "payment-terminal": true, "renting": 1, "returning": 1, "slots": 39, "station_id": 81081358, "uid": "18011"}, "free_bikes": 2, "id": "245619a344ea59289f61f27a9a69a146", "latitude": 48.8927825, "longitude": 2.3635598, "name": "Pajol - Place Herbert", "timestamp": "2022-11-18T17:27:04.970000Z"}, {"empty_slots": 7, "extra": {"banking": true, "ebikes": 1, "last_updated": 1668791579, "payment": ["creditcard"], "payment-terminal": true, "renting": 1, "returning": 1, "slots": 25, "station_id": 213684314, "uid": "15105"}, "free_bikes": 17, "id": "7eddfddc58844d6d4c34b06ac41d8b5d", "latitude": 48.852828153442346, "longitude": 2.2978776320815086, "name": "F\u00e9d\u00e9ration - Suffren", "timestamp": "2022-11-18T17:27:04.437000Z"}, {"empty_slots": 36, "extra": {"banking": false, "ebikes": 1, "last_updated": 1668791569, "payment-terminal": false, "renting": 1, "returning": 1, "slots": 64, "station_id": 535500589, "uid": "15104"}, "free_bikes": 28, "id": "a87ab4a2181ddd14a7ef18b8c51dd088", "latitude": 48.83769531916335, "longitude": 2.275374233722687, "name": "H\u00f4pital Europ\u00e9en Georges Pompidou ", "timestamp": "2022-11-18T17:27:03.855000Z"}, {"empty_slots": 14, "extra": {"banking": true, "ebikes": 13, "last_updated": 1668791600, "payment": ["creditcard"], "payment-terminal": true, "renting": 1, "returning": 1, "slots": 35, "station_id": 597245295, "uid": "44006"}, "free_bikes": 21, "id": "f95e25028557f007a30c969f14d83619", "latitude": 48.7985844, "longitude": 2.3821302, "name": "Concorde - Stalingrad", "timestamp": "2022-11-18T17:27:06.588000Z"}, {"empty_slots": 26, "extra": {"banking": false, "ebikes": 1, "last_updated": 1668791541, "payment-terminal": false, "renting": 1, "returning": 1, "slots": 27, "station_id": 235513935, "uid": "19120"}, "free_bikes": 1, "id": "b1f0b90f2fa3212b58f1d0021ac41a84", "latitude": 48.877436681515796, "longitude": 2.3860743641853337, "name": "Carducci - Place Hannah Arendt", "timestamp": "2022-11-18T17:27:03.518000Z"}, {"empty_slots": 16, "extra": {"banking": false, "ebikes": 1, "last_updated": 1668791613, "payment-terminal": false, "renting": 1, "returning": 1, "slots": 20, "station_id": 27206194, "uid": "5004"}, "free_bikes": 2, "id": "369df960ee33506c3a598f5fe8f778d9", "latitude": 48.8417514, "longitude": 2.3413893, "name": "Saint-Jacques - Val de Gr\u00e2ce", "timestamp": "2022-11-18T17:27:01.957000Z"}, {"empty_slots": 12, "extra": {"banking": false, "ebikes": 6, "last_updated": 1668791620, "payment-terminal": false, "renting": 1, "returning": 1, "slots": 20, "station_id": 102323152, "uid": "19103"}, "free_bikes": 7, "id": "81c6917af57589f4738c3a3b55008ab8", "latitude": 48.88467214209463, "longitude": 2.3919698596000676, "name": "Manin - Carri\u00e8res d'Am\u00e9rique", "timestamp": "2022-11-18T17:27:04.918000Z"}, {"empty_slots": 27, "extra": {"banking": false, "ebikes": 0, "last_updated": 1668791636, "payment-terminal": false, "renting": 1, "returning": 1, "slots": 28, "station_id": 129060764, "uid": "12114"}, "free_bikes": 0, "id": "dd52e0cb096996ac0233416fa8f662ce", "latitude": 48.843949064031825, "longitude": 2.415081394834419, "name": "Victor Hugo - Jeanne Jugan", "timestamp": "2022-11-18T17:27:04.377000Z"}, {"empty_slots": 30, "extra": {"banking": false, "ebikes": 1, "last_updated": 1668791639, "payment-terminal": false, "renting": 1, "returning": 1, "slots": 32, "station_id": 828134511, "uid": "14138"}, "free_bikes": 1, "id": "e61199a82c0da4eec47ec06c33d86bdb", "latitude": 48.828012849445, "longitude": 2.3056878894567, "name": "Porte de Vanves", "timestamp": "2022-11-18T17:27:05.089000Z"}, {"empty_slots": 4, "extra": {"banking": true, "ebikes": 1, "last_updated": 1668791633, "payment": ["creditcard"], "payment-terminal": true, "renting": 1, "returning": 1, "slots": 19, "station_id": 129050965, "uid": "11046"}, "free_bikes": 11, "id": "58523eb76e479390d1253e58c81d2818", "latitude": 48.866830968942, "longitude": 2.3654810339212, "name": "Place de la R\u00e9publique - Voltaire", "timestamp": "2022-11-18T17:27:03.633000Z"}, {"empty_slots": 7, "extra": {"banking": false, "ebikes": 1, "last_updated": 1668791538, "payment-terminal": false, "renting": 1, "returning": 1, "slots": 25, "station_id": 586649404, "uid": "46003"}, "free_bikes": 18, "id": "6a2c14f71aefa51eaad2cda6c1e6d220", "latitude": 48.77093586667601, "longitude": 2.4034014344215398, "name": "Conservatoire de Musique", "timestamp": "2022-11-18T17:27:04.308000Z"}, {"empty_slots": 2, "extra": {"banking": false, "ebikes": 3, "last_updated": 1668791638, "payment-terminal": false, "renting": 1, "returning": 1, "slots": 15, "station_id": 210584503, "uid": "10017"}, "free_bikes": 7, "id": "181c9a16dafc3dcae89058267fb52eae", "latitude": 48.874575, "longitude": 2.356796, "name": "Gare de l'Est - Fid\u00e9lit\u00e9", "timestamp": "2022-11-18T17:27:02.633000Z"}, {"empty_slots": 31, "extra": {"banking": true, "ebikes": 1, "last_updated": 1668791625, "payment": ["creditcard"], "payment-terminal": true, "renting": 1, "returning": 1, "slots": 33, "station_id": 76199461, "uid": "18028"}, "free_bikes": 1, "id": "82afb3ca468026dfa2d45e3232c688f3", "latitude": 48.89401874744574, "longitude": 2.3319872841238976, "name": "Championnet - Vauvenargues", "timestamp": "2022-11-18T17:27:05.478000Z"}, {"empty_slots": 16, "extra": {"banking": false, "ebikes": 2, "last_updated": 1668791637, "payment-terminal": false, "renting": 1, "returning": 1, "slots": 19, "station_id": 271426439, "uid": "10024"}, "free_bikes": 3, "id": "c6d7a786768ad66d80d8234468700590", "latitude": 48.87174684930295, "longitude": 2.3722528328789854, "name": "Buisson Saint-Louis - Saint-Maur", "timestamp": "2022-11-18T17:27:02.486000Z"}, {"empty_slots": 42, "extra": {"banking": true, "ebikes": 3, "last_updated": 1668791617, "payment": ["creditcard"], "payment-terminal": true, "renting": 1, "returning": 1, "slots": 46, "station_id": 27363187, "uid": "18031"}, "free_bikes": 3, "id": "16412aab9acb0fed26c215d96d088629", "latitude": 48.8957969797804, "longitude": 2.345585584134864, "name": "Place Albert Kahn", "timestamp": "2022-11-18T17:27:03.432000Z"}, {"empty_slots": 2, "extra": {"banking": true, "ebikes": 5, "last_updated": 1668791640, "payment": ["creditcard"], "payment-terminal": true, "renting": 1, "returning": 1, "slots": 20, "station_id": 594942659, "uid": "10153"}, "free_bikes": 18, "id": "b0a83706c92bf562b073f4e5c1452b89", "latitude": 48.879595787608096, "longitude": 2.3544725775718693, "name": "Gare du Nord - Denain", "timestamp": "2022-11-18T17:27:06.106000Z"}, {"empty_slots": 5, "extra": {"banking": false, "ebikes": 2, "last_updated": 1668791583, "payment-terminal": false, "renting": 1, "returning": 1, "slots": 19, "station_id": 213683101, "uid": "15054"}, "free_bikes": 10, "id": "0286062e968424bf7ed0e2730471a58e", "latitude": 48.83796366147599, "longitude": 2.2877392172813416, "name": "Lecourbe - Jean Maridor", "timestamp": "2022-11-18T17:27:03.893000Z"}, {"empty_slots": 27, "extra": {"banking": true, "ebikes": 4, "last_updated": 1668791558, "payment": ["creditcard"], "payment-terminal": true, "renting": 1, "returning": 1, "slots": 35, "station_id": 213684750, "uid": "15106"}, "free_bikes": 7, "id": "d83374f7eaf870abfc72cf207f2a3b8d", "latitude": 48.84993035512154, "longitude": 2.294612042605877, "name": "Grenelle - Violet", "timestamp": "2022-11-18T17:27:04.704000Z"}, {"empty_slots": 31, "extra": {"banking": true, "ebikes": 1, "last_updated": 1668791577, "payment": ["creditcard"], "payment-terminal": true, "renting": 1, "returning": 1, "slots": 33, "station_id": 54000625, "uid": "20131"}, "free_bikes": 2, "id": "dac92a394d655d0e3436fe8c7d424535", "latitude": 48.859358523593, "longitude": 2.3896131366845, "name": "Repos - Cimeti\u00e8re du P\u00e8re Lachaise", "timestamp": "2022-11-18T17:27:06.329000Z"}, {"empty_slots": 35, "extra": {"banking": true, "ebikes": 2, "last_updated": 1668791540, "payment": ["creditcard"], "payment-terminal": true, "renting": 1, "returning": 1, "slots": 39, "station_id": 129067920, "uid": "14008"}, "free_bikes": 3, "id": "00718dcc2fa34b019d9cba625c94b1e7", "latitude": 48.831632518292565, "longitude": 2.3293121159076686, "name": "Mouton Duvernet - G\u00e9n\u00e9ral Leclerc", "timestamp": "2022-11-18T17:27:03.886000Z"}, {"empty_slots": 14, "extra": {"banking": false, "ebikes": 0, "last_updated": 1668791379, "payment-terminal": false, "renting": 1, "returning": 1, "slots": 16, "station_id": 129038848, "uid": "10042"}, "free_bikes": 1, "id": "80d99e3a323117129b2639ce06f3fbce", "latitude": 48.872420063053, "longitude": 2.3483952362828, "name": "Enghien - Faubourg Poissonni\u00e8re", "timestamp": "2022-11-18T17:27:05.978000Z"}, {"empty_slots": 12, "extra": {"banking": false, "ebikes": 2, "last_updated": 1668791642, "payment-terminal": false, "renting": 1, "returning": 1, "slots": 24, "station_id": 213685514, "uid": "15110"}, "free_bikes": 12, "id": "e2111d9f681c2fda195565830e3d3e50", "latitude": 48.836191728066666, "longitude": 2.2811267160086417, "name": "Place Robert Guillemard", "timestamp": "2022-11-18T17:27:05.222000Z"}, {"empty_slots": 18, "extra": {"banking": true, "ebikes": 1, "last_updated": 1668791633, "payment": ["creditcard"], "payment-terminal": true, "renting": 1, "returning": 1, "slots": 49, "station_id": 544249939, "uid": "7101"}, "free_bikes": 29, "id": "6804f69932aa639140cd339c2d3033a8", "latitude": 48.852233164303094, "longitude": 2.3266580700874333, "name": "Raspail - Chomel", "timestamp": "2022-11-18T17:27:05.848000Z"}, {"empty_slots": 19, "extra": {"banking": false, "ebikes": 2, "last_updated": 1668791635, "payment-terminal": false, "renting": 1, "returning": 1, "slots": 21, "station_id": 27364743, "uid": "14106"}, "free_bikes": 2, "id": "8a621999524f1f819e5fdde38cf379d7", "latitude": 48.825218683556734, "longitude": 2.3107116669416428, "name": "Marc Sangnier - Porte de Vanves", "timestamp": "2022-11-18T17:27:04.104000Z"}, {"empty_slots": 27, "extra": {"banking": false, "ebikes": 0, "last_updated": 1668791302, "payment-terminal": false, "renting": 1, "returning": 1, "slots": 33, "station_id": 102314792, "uid": "18046"}, "free_bikes": 2, "id": "2c1b9fe1588f2a55133e8ecced090087", "latitude": 48.88794016394694, "longitude": 2.326124420314341, "name": "Etienne Jodelle - Saint Ouen", "timestamp": "2022-11-18T17:27:04.849000Z"}, {"empty_slots": 10, "extra": {"banking": false, "ebikes": 5, "last_updated": 1668791638, "payment-terminal": false, "renting": 1, "returning": 1, "slots": 27, "station_id": 102329800, "uid": "21006"}, "free_bikes": 14, "id": "d57ebdccece8728e9eadba78c16c3602", "latitude": 48.8415473058801, "longitude": 2.233161628246308, "name": "Marcelin Berthelot", "timestamp": "2022-11-18T17:27:04.116000Z"}, {"empty_slots": 16, "extra": {"banking": false, "ebikes": 4, "last_updated": 1668791510, "payment-terminal": false, "renting": 1, "returning": 1, "slots": 23, "station_id": 35447568, "uid": "22406"}, "free_bikes": 6, "id": "cd99f6fccb3b8308d3a209ed2d50f6b7", "latitude": 48.81527009991819, "longitude": 2.298078276995073, "name": "Guy M\u00f4quet - Etienne Dolet", "timestamp": "2022-11-18T17:27:02.342000Z"}, {"empty_slots": 25, "extra": {"banking": true, "ebikes": 3, "last_updated": 1668791290, "payment": ["creditcard"], "payment-terminal": true, "renting": 1, "returning": 1, "slots": 30, "station_id": 27415736, "uid": "35002"}, "free_bikes": 5, "id": "b5ab69f1149431d5e2d88e6e48c13bfd", "latitude": 48.90713441498779, "longitude": 2.396005728053061, "name": "Jean Jaur\u00e8s - Presles", "timestamp": "2022-11-18T17:27:01.562000Z"}, {"empty_slots": 19, "extra": {"banking": false, "ebikes": 2, "last_updated": 1668791308, "payment-terminal": false, "renting": 1, "returning": 1, "slots": 21, "station_id": 583178525, "uid": "31102"}, "free_bikes": 2, "id": "a728c3796d1b4797469bde32fed91fb2", "latitude": 48.876111, "longitude": 2.4677312, "name": "Boissi\u00e8re - Etienne Dolet", "timestamp": "2022-11-18T17:27:05.930000Z"}, {"empty_slots": 19, "extra": {"banking": false, "ebikes": 1, "last_updated": 1668791591, "payment-terminal": false, "renting": 1, "returning": 1, "slots": 30, "station_id": 572566600, "uid": "44013"}, "free_bikes": 11, "id": "d2b68e9aee4f8d99eb34c854f3b85736", "latitude": 48.781383825117, "longitude": 2.3723508417606, "name": "Edouard Tremblay - Julian Grimaux", "timestamp": "2022-11-18T17:27:03.921000Z"}, {"empty_slots": 25, "extra": {"banking": true, "ebikes": 1, "last_updated": 1668791642, "payment": ["creditcard"], "payment-terminal": true, "renting": 1, "returning": 1, "slots": 32, "station_id": 82387816, "uid": "8054"}, "free_bikes": 5, "id": "fb6143e08f09ec21268014e1fead6fbc", "latitude": 48.87614039826388, "longitude": 2.301303138307601, "name": "Bertie Albrecht - Hoche", "timestamp": "2022-11-18T17:27:02.478000Z"}, {"empty_slots": 20, "extra": {"banking": false, "ebikes": 3, "last_updated": 1668791636, "payment-terminal": false, "renting": 1, "returning": 1, "slots": 25, "station_id": 213679512, "uid": "14012"}, "free_bikes": 5, "id": "4108b785296de89b10b751f5bdfbd586", "latitude": 48.826701758539215, "longitude": 2.3384983465075493, "name": "Sibelle - Al\u00e9sia", "timestamp": "2022-11-18T17:27:06.598000Z"}, {"empty_slots": 20, "extra": {"banking": true, "ebikes": 3, "last_updated": 1668791599, "payment": ["creditcard"], "payment-terminal": true, "renting": 1, "returning": 1, "slots": 26, "station_id": 85147829, "uid": "21005"}, "free_bikes": 5, "id": "a64573b5190cc358a71dc8214c79271e", "latitude": 48.83495885166784, "longitude": 2.2416803240776066, "name": "H\u00f4tel de Ville de Boulogne Billancourt", "timestamp": "2022-11-18T17:27:01.584000Z"}, {"empty_slots": 10, "extra": {"banking": true, "ebikes": 0, "last_updated": 1668791637, "payment": ["creditcard"], "payment-terminal": true, "renting": 1, "returning": 1, "slots": 29, "station_id": 213685090, "uid": "15109"}, "free_bikes": 19, "id": "3ba5474502d0aa75bdd2bfcbd01e01cf", "latitude": 48.84240765130395, "longitude": 2.281037718057633, "name": "Cevennes - Bergers", "timestamp": "2022-11-18T17:27:05.025000Z"}, {"empty_slots": 23, "extra": {"banking": false, "ebikes": 5, "last_updated": 1668791635, "payment-terminal": false, "renting": 1, "returning": 1, "slots": 30, "station_id": 301841024, "uid": "21209"}, "free_bikes": 5, "id": "872fdfe8bc3d8669b1629ee2d40e0a1d", "latitude": 48.81111581390707, "longitude": 2.3145738624448158, "name": "Moli\u00e8re - R\u00e9publique", "timestamp": "2022-11-18T17:27:06.034000Z"}, {"empty_slots": 7, "extra": {"banking": true, "ebikes": 3, "last_updated": 1668791607, "payment": ["creditcard"], "payment-terminal": true, "renting": 1, "returning": 1, "slots": 21, "station_id": 213676294, "uid": "13053"}, "free_bikes": 14, "id": "fe296c930942ae6a13e8ad2e6ea013de", "latitude": 48.82941, "longitude": 2.375934, "name": "Chevaleret - Tolbiac", "timestamp": "2022-11-18T17:27:04.534000Z"}, {"empty_slots": 19, "extra": {"banking": true, "ebikes": 0, "last_updated": 1668791452, "payment": ["creditcard"], "payment-terminal": true, "renting": 1, "returning": 1, "slots": 24, "station_id": 588452142, "uid": "35010"}, "free_bikes": 3, "id": "d2b097f9d404bc73221242a9845ec9c7", "latitude": 48.89110239200789, "longitude": 2.402843534946442, "name": "Hoche - Jean Lolive", "timestamp": "2022-11-18T17:27:04.570000Z"}, {"empty_slots": 21, "extra": {"banking": true, "ebikes": 0, "last_updated": 1668791551, "payment": ["creditcard"], "payment-terminal": true, "renting": 1, "returning": 1, "slots": 22, "station_id": 213681356, "uid": "14124"}, "free_bikes": 0, "id": "f58053884704d8d07239df165354fc96", "latitude": 48.821092374256104, "longitude": 2.333725690841675, "name": "David Weill - Parc Montsouris", "timestamp": "2022-11-18T17:27:02.898000Z"}, {"empty_slots": 13, "extra": {"banking": true, "ebikes": 14, "last_updated": 1668791507, "payment": ["creditcard"], "payment-terminal": true, "renting": 1, "returning": 1, "slots": 38, "station_id": 653200142, "uid": "92008"}, "free_bikes": 25, "id": "ed0463d727df1ad32249367a3f5636ec", "latitude": 48.892371898250424, "longitude": 2.205548956990242, "name": "H\u00f4tel de Ville de Nanterre", "timestamp": "2022-11-18T17:27:02.016000Z"}, {"empty_slots": 27, "extra": {"banking": true, "ebikes": 2, "last_updated": 1668791523, "payment": ["creditcard"], "payment-terminal": true, "renting": 1, "returning": 1, "slots": 37, "station_id": 66491402, "uid": "18022"}, "free_bikes": 7, "id": "f98b98a999c735ea43a15b32c22e1eda", "latitude": 48.89045112096476, "longitude": 2.349057392968696, "name": "Marcadet - Barb\u00e8s", "timestamp": "2022-11-18T17:27:04.965000Z"}, {"empty_slots": 29, "extra": {"banking": false, "ebikes": 1, "last_updated": 1668791642, "payment-terminal": false, "renting": 1, "returning": 1, "slots": 35, "station_id": 210565680, "uid": "7002"}, "free_bikes": 5, "id": "0b23d6bf33059c82ee505fb68802f811", "latitude": 48.84856323305935, "longitude": 2.3204218259345537, "name": "Vaneau - S\u00e8vres", "timestamp": "2022-11-18T17:27:06.003000Z"}, {"empty_slots": 41, "extra": {"banking": false, "ebikes": 1, "last_updated": 1668791496, "payment-terminal": false, "renting": 1, "returning": 1, "slots": 43, "station_id": 27415665, "uid": "22402"}, "free_bikes": 2, "id": "8561b8c39252e8a4287181c7410b932f", "latitude": 48.821475594736775, "longitude": 2.3026576638221745, "name": "Jean Jaur\u00e8s - Salvador Allende", "timestamp": "2022-11-18T17:27:05.101000Z"}, {"empty_slots": 56, "extra": {"banking": true, "ebikes": 1, "last_updated": 1668791602, "payment": ["creditcard"], "payment-terminal": true, "renting": 1, "returning": 1, "slots": 57, "station_id": 213911772, "uid": "31008"}, "free_bikes": 1, "id": "83a12407a969085098c09984ae7b3392", "latitude": 48.857421708072074, "longitude": 2.437578141689301, "name": "Fran\u00e7ois Debergue - Croix de Chavaux", "timestamp": "2022-11-18T17:27:03.547000Z"}, {"empty_slots": 14, "extra": {"banking": false, "ebikes": 2, "last_updated": 1668791349, "payment-terminal": false, "renting": 1, "returning": 1, "slots": 23, "station_id": 129132870, "uid": "21015"}, "free_bikes": 9, "id": "2c30ff78fb8e28fb3d8b5d188ccaff1c", "latitude": 48.82753962462998, "longitude": 2.2416052222251897, "name": "Nationale - Place Jules Guesde", "timestamp": "2022-11-18T17:27:03.623000Z"}, {"empty_slots": 5, "extra": {"banking": true, "ebikes": 2, "last_updated": 1668791639, "payment": ["creditcard"], "payment-terminal": true, "renting": 1, "returning": 1, "slots": 20, "station_id": 620403530, "uid": "44003"}, "free_bikes": 15, "id": "5086d6e204e73a68cf7412c7adc80f88", "latitude": 48.790114, "longitude": 2.4025777, "name": "Gabriel P\u00e9ri - Danielle Casanova", "timestamp": "2022-11-18T17:27:06.142000Z"}, {"empty_slots": 6, "extra": {"banking": true, "ebikes": 2, "last_updated": 1668791612, "payment": ["creditcard"], "payment-terminal": true, "renting": 1, "returning": 1, "slots": 50, "station_id": 624177860, "uid": "16122"}, "free_bikes": 43, "id": "930b746bb09f1ed84bf66a47f262c746", "latitude": 48.8798926, "longitude": 2.2587671, "name": "Route de la Muette - Porte de Neuilly", "timestamp": "2022-11-18T17:27:04.801000Z"}, {"empty_slots": 18, "extra": {"banking": false, "ebikes": 5, "last_updated": 1668791349, "payment-terminal": false, "renting": 1, "returning": 1, "slots": 26, "station_id": 631773910, "uid": "41404"}, "free_bikes": 7, "id": "d0453cba0050a3750348d90b8d27f21b", "latitude": 48.79592939432515, "longitude": 2.4261841177940373, "name": "Carnot - P\u00e2querettes", "timestamp": "2022-11-18T17:27:06.113000Z"}, {"empty_slots": 27, "extra": {"banking": false, "ebikes": 0, "last_updated": 1668791189, "payment-terminal": false, "renting": 1, "returning": 1, "slots": 28, "station_id": 611152693, "uid": "22203"}, "free_bikes": 1, "id": "b12cdb41cb813c52ad3050b93f4b61f8", "latitude": 48.787553654715644, "longitude": 2.306235730648041, "name": "Tertres - Fontaine", "timestamp": "2022-11-18T17:27:04.867000Z"}, {"empty_slots": 57, "extra": {"banking": true, "ebikes": 2, "last_updated": 1668791640, "payment": ["creditcard"], "payment-terminal": true, "renting": 1, "returning": 1, "slots": 61, "station_id": 235241110, "uid": "41202"}, "free_bikes": 3, "id": "82be1e73fc5805fc36fdcbce8962a99b", "latitude": 48.8436279, "longitude": 2.4630465, "name": "Gare Rer de Fontenay sous Bois", "timestamp": "2022-11-18T17:27:05.761000Z"}, {"empty_slots": 24, "extra": {"banking": true, "ebikes": 3, "last_updated": 1668791629, "payment": ["creditcard"], "payment-terminal": true, "renting": 1, "returning": 1, "slots": 32, "station_id": 613737748, "uid": "42021"}, "free_bikes": 8, "id": "d3a2ff3c88a9849b2ee10579018a1364", "latitude": 48.8094458, "longitude": 2.3903009, "name": "Raspail - Manufacture des Oeillets", "timestamp": "2022-11-18T17:27:02.905000Z"}, {"empty_slots": 30, "extra": {"banking": true, "ebikes": 2, "last_updated": 1668791584, "payment": ["creditcard"], "payment-terminal": true, "renting": 1, "returning": 1, "slots": 36, "station_id": 632007124, "uid": "31016"}, "free_bikes": 5, "id": "85f20fa1ddcb0cb074a830d099dea308", "latitude": 48.86223916006812, "longitude": 2.4435862898826604, "name": "Lucie Aubrac - Franklin", "timestamp": "2022-11-18T17:27:03.701000Z"}, {"empty_slots": 6, "extra": {"banking": false, "ebikes": 2, "last_updated": 1668791639, "payment-terminal": false, "renting": 1, "returning": 1, "slots": 28, "station_id": 632086890, "uid": "44004"}, "free_bikes": 22, "id": "df01dc24a762fa5b2ad6135745f3eb55", "latitude": 48.791922819921815, "longitude": 2.395057752728462, "name": "Place de l'Eglise - Vitry-sur-Seine", "timestamp": "2022-11-18T17:27:01.609000Z"}, {"empty_slots": 21, "extra": {"banking": false, "ebikes": 0, "last_updated": 1668791516, "payment-terminal": false, "renting": 1, "returning": 1, "slots": 22, "station_id": 213945171, "uid": "31708"}, "free_bikes": 1, "id": "d01c235cdb4b9097d28e455e2c74be01", "latitude": 48.87451538963655, "longitude": 2.415283620357514, "name": "Noisy le Sec - Jean-Baptiste Cl\u00e9ment", "timestamp": "2022-11-18T17:27:03.874000Z"}, {"empty_slots": 17, "extra": {"banking": true, "ebikes": 1, "last_updated": 1668791264, "payment": ["creditcard"], "payment-terminal": true, "renting": 1, "returning": 1, "slots": 20, "station_id": 463297497, "uid": "35020"}, "free_bikes": 1, "id": "0b38b096fe3eef717615fb15e516c45f", "latitude": 48.8835462, "longitude": 2.4137883, "name": "Marcelle - Thalie", "timestamp": "2022-11-18T17:27:03.376000Z"}, {"empty_slots": 7, "extra": {"banking": false, "ebikes": 8, "last_updated": 1668791642, "payment-terminal": false, "renting": 1, "returning": 1, "slots": 24, "station_id": 213875650, "uid": "25003"}, "free_bikes": 16, "id": "fdb8945bd7922a97cc52ea4afac6c9a2", "latitude": 48.892663, "longitude": 2.172411, "name": "Henri Ste-Claire D\u00e9ville - Paul H\u00e9roult", "timestamp": "2022-11-18T17:27:06.249000Z"}, {"empty_slots": 19, "extra": {"banking": false, "ebikes": 0, "last_updated": 1668791561, "payment-terminal": false, "renting": 1, "returning": 1, "slots": 20, "station_id": 245187072, "uid": "20115"}, "free_bikes": 0, "id": "3a05079f559fff0b86fa2bf0921a2f11", "latitude": 48.86431136000005, "longitude": 2.4105210229754443, "name": "Louis Lumi\u00e8re - Porte de Bagnolet", "timestamp": "2022-11-18T17:27:01.760000Z"}, {"empty_slots": 21, "extra": {"banking": true, "ebikes": 4, "last_updated": 1668791607, "payment": ["creditcard"], "payment-terminal": true, "renting": 1, "returning": 1, "slots": 30, "station_id": 129144878, "uid": "31003"}, "free_bikes": 8, "id": "cb86865b0a02da8981d54f3c56f7e274", "latitude": 48.854898095789295, "longitude": 2.4186685681343083, "name": "Paris - Emile Zola", "timestamp": "2022-11-18T17:27:05.817000Z"}, {"empty_slots": 13, "extra": {"banking": true, "ebikes": 6, "last_updated": 1668791396, "payment": ["creditcard"], "payment-terminal": true, "renting": 1, "returning": 1, "slots": 34, "station_id": 102331767, "uid": "21008"}, "free_bikes": 21, "id": "12814e3da93b1e24881fef140301edbc", "latitude": 48.83802015441127, "longitude": 2.2460845112800603, "name": "Victor Hugo - Galli\u00e9ni", "timestamp": "2022-11-18T17:27:01.587000Z"}, {"empty_slots": 14, "extra": {"banking": true, "ebikes": 2, "last_updated": 1668791629, "payment": ["creditcard"], "payment-terminal": true, "renting": 1, "returning": 1, "slots": 24, "station_id": 593238093, "uid": "9116"}, "free_bikes": 9, "id": "fbaf6d3fa0223f131397ed46900ea8b1", "latitude": 48.875065791004396, "longitude": 2.3316738009452824, "name": "Victoire - Chauss\u00e9e d'Antin", "timestamp": "2022-11-18T17:27:05.841000Z"}, {"empty_slots": 30, "extra": {"banking": false, "ebikes": 0, "last_updated": 1668791279, "payment-terminal": false, "renting": 0, "returning": 0, "slots": 30, "station_id": 213952930, "uid": "32001"}, "free_bikes": 0, "id": "f0abcdc6123b221199987eba21c12c12", "latitude": 48.906442763495, "longitude": 2.3584905266762, "name": "Proudhon - Pr\u00e9sident Wilson", "timestamp": "2022-11-18T17:27:03.689000Z"}, {"empty_slots": 34, "extra": {"banking": false, "ebikes": 2, "last_updated": 1668791636, "payment-terminal": false, "renting": 1, "returning": 1, "slots": 40, "station_id": 606669250, "uid": "12154"}, "free_bikes": 6, "id": "2f6d0167a95821501cfb9211437e490e", "latitude": 48.84070239213081, "longitude": 2.409667745232582, "name": "Square Georges Melies", "timestamp": "2022-11-18T17:27:03.693000Z"}, {"empty_slots": 22, "extra": {"banking": true, "ebikes": 5, "last_updated": 1668791641, "payment": ["creditcard"], "payment-terminal": true, "renting": 1, "returning": 1, "slots": 32, "station_id": 15462236, "uid": "16008"}, "free_bikes": 7, "id": "8f275a7310d4ed997c235252009ade6f", "latitude": 48.86741186571367, "longitude": 2.290781380114821, "name": "Galil\u00e9e - Kl\u00e9ber", "timestamp": "2022-11-18T17:27:04.347000Z"}, {"empty_slots": 25, "extra": {"banking": true, "ebikes": 5, "last_updated": 1668791638, "payment": ["creditcard"], "payment-terminal": true, "renting": 1, "returning": 1, "slots": 36, "station_id": 37791, "uid": "11039"}, "free_bikes": 8, "id": "5647d067f510533f3e7b855d4c133ec5", "latitude": 48.86580427668637, "longitude": 2.369337074966926, "name": "Richard Lenoir - Jean-Pierre Timbaud", "timestamp": "2022-11-18T17:27:04.896000Z"}, {"empty_slots": 18, "extra": {"banking": true, "ebikes": 0, "last_updated": 1668791510, "payment": ["creditcard"], "payment-terminal": true, "renting": 1, "returning": 1, "slots": 23, "station_id": 50156117, "uid": "17013"}, "free_bikes": 4, "id": "78b0c1c2a9b18f24ef024257370b66be", "latitude": 48.885325169402904, "longitude": 2.316423766314984, "name": "Legendre - Dulong", "timestamp": "2022-11-18T17:27:04.725000Z"}, {"empty_slots": 21, "extra": {"banking": true, "ebikes": 0, "last_updated": 1668791555, "payment": ["creditcard"], "payment-terminal": true, "renting": 1, "returning": 1, "slots": 28, "station_id": 128890772, "uid": "7021"}, "free_bikes": 5, "id": "599ba9ea3625cc347e892274d793ba38", "latitude": 48.85865170952645, "longitude": 2.303716580234576, "name": "Bosquet - Saint-Dominique", "timestamp": "2022-11-18T17:27:05.762000Z"}, {"empty_slots": 18, "extra": {"banking": true, "ebikes": 2, "last_updated": 1668791436, "payment": ["creditcard"], "payment-terminal": true, "renting": 1, "returning": 1, "slots": 28, "station_id": 129093478, "uid": "17031"}, "free_bikes": 9, "id": "8cf8499aed500a58ea9af6ffa37d3258", "latitude": 48.88561741628322, "longitude": 2.290781411279206, "name": "Place de la Porte de Champerret", "timestamp": "2022-11-18T17:27:06.426000Z"}, {"empty_slots": 36, "extra": {"banking": true, "ebikes": 8, "last_updated": 1668791639, "payment": ["creditcard"], "payment-terminal": true, "renting": 1, "returning": 1, "slots": 45, "station_id": 210744286, "uid": "11026"}, "free_bikes": 9, "id": "fc93c6ee4f2c083448ae5eba3e4d47c3", "latitude": 48.86112461407359, "longitude": 2.381299026310444, "name": "Chemin Vert - Saint-Maur", "timestamp": "2022-11-18T17:27:04.921000Z"}, {"empty_slots": 32, "extra": {"banking": true, "ebikes": 1, "last_updated": 1668791641, "payment": ["creditcard"], "payment-terminal": true, "renting": 1, "returning": 1, "slots": 57, "station_id": 101024234, "uid": "13050"}, "free_bikes": 23, "id": "9b500b459bb4c0aba959a354251c0cf3", "latitude": 48.82837482809675, "longitude": 2.384273745805574, "name": "Quai Panhard et Levassor", "timestamp": "2022-11-18T17:27:01.685000Z"}, {"empty_slots": 48, "extra": {"banking": false, "ebikes": 1, "last_updated": 1668791422, "payment-terminal": false, "renting": 1, "returning": 1, "slots": 50, "station_id": 213992316, "uid": "32604"}, "free_bikes": 2, "id": "3f9290134bb9cc2bfabaa5ee66f4c1ae", "latitude": 48.881287375060616, "longitude": 2.420119643211365, "name": "Square du Th\u00e9\u00e2tre du Garde-Chasse", "timestamp": "2022-11-18T17:27:02.482000Z"}, {"empty_slots": 20, "extra": {"banking": false, "ebikes": 0, "last_updated": 1668791496, "payment-terminal": false, "renting": 1, "returning": 1, "slots": 20, "station_id": 213694482, "uid": "19024"}, "free_bikes": 0, "id": "2776291e78769421a5615e5dac2adcc2", "latitude": 48.877951, "longitude": 2.381464, "name": "Botzaris - Parc des Buttes Chaumont", "timestamp": "2022-11-18T17:27:05.811000Z"}, {"empty_slots": 27, "extra": {"banking": true, "ebikes": 1, "last_updated": 1668791512, "payment": ["creditcard"], "payment-terminal": true, "renting": 1, "returning": 1, "slots": 35, "station_id": 39799329, "uid": "9014"}, "free_bikes": 6, "id": "9efb83e6e67306562f7132a15741192e", "latitude": 48.87525454905335, "longitude": 2.340853661298752, "name": "Faubourg Montmartre - La Fayette", "timestamp": "2022-11-18T17:27:03.722000Z"}, {"empty_slots": 55, "extra": {"banking": true, "ebikes": 3, "last_updated": 1668791587, "payment": ["creditcard"], "payment-terminal": true, "renting": 1, "returning": 1, "slots": 64, "station_id": 101743895, "uid": "15021"}, "free_bikes": 7, "id": "c8ca1d140dac90e5571c377761f51505", "latitude": 48.844835471244416, "longitude": 2.297508493065834, "name": "Joseph Liouville - Croix Nivert", "timestamp": "2022-11-18T17:27:06.551000Z"}, {"empty_slots": 39, "extra": {"banking": false, "ebikes": 1, "last_updated": 1668791605, "payment-terminal": false, "renting": 1, "returning": 1, "slots": 42, "station_id": 213691848, "uid": "17105"}, "free_bikes": 3, "id": "cf06f90e57e47828b6a78c15756d6efd", "latitude": 48.883498, "longitude": 2.282015, "name": "Place Madeleine Dani\u00e9lou", "timestamp": "2022-11-18T17:27:04.789000Z"}, {"empty_slots": 14, "extra": {"banking": false, "ebikes": 2, "last_updated": 1668791640, "payment-terminal": false, "renting": 1, "returning": 1, "slots": 16, "station_id": 210396518, "uid": "5012"}, "free_bikes": 2, "id": "8601c34d7f1a457da026bb956c81e7c5", "latitude": 48.84512772828039, "longitude": 2.3454568170361734, "name": "Estrapade - Ulm", "timestamp": "2022-11-18T17:27:02.924000Z"}, {"empty_slots": 46, "extra": {"banking": true, "ebikes": 2, "last_updated": 1668791642, "payment": ["creditcard"], "payment-terminal": true, "renting": 1, "returning": 1, "slots": 50, "station_id": 97677210, "uid": "11105"}, "free_bikes": 2, "id": "d19e975e803c256106251152a112ba7a", "latitude": 48.8644954, "longitude": 2.3750124, "name": "Parmentier - R\u00e9publique ", "timestamp": "2022-11-18T17:27:04.376000Z"}, {"empty_slots": 20, "extra": {"banking": true, "ebikes": 0, "last_updated": 1668791456, "payment": ["creditcard"], "payment-terminal": true, "renting": 1, "returning": 1, "slots": 20, "station_id": 875078767, "uid": "20134"}, "free_bikes": 0, "id": "ccddc3f74a52fc55e5dd7db77b86033a", "latitude": 48.86746195408435, "longitude": 2.405970990657807, "name": "Lieutenant Chaur\u00e9 - Etienne Marey", "timestamp": "2022-11-18T17:27:02.874000Z"}, {"empty_slots": 18, "extra": {"banking": true, "ebikes": 1, "last_updated": 1668791640, "payment": ["creditcard"], "payment-terminal": true, "renting": 1, "returning": 1, "slots": 19, "station_id": 35908, "uid": "5106"}, "free_bikes": 1, "id": "90e25ed0c04c5a9c6f6a2538703f48e4", "latitude": 48.848191348584, "longitude": 2.341831654854, "name": "Cujas - Saint-Michel", "timestamp": "2022-11-18T17:27:03.920000Z"}, {"empty_slots": 23, "extra": {"banking": true, "ebikes": 2, "last_updated": 1668791609, "payment": ["creditcard"], "payment-terminal": true, "renting": 1, "returning": 1, "slots": 25, "station_id": 213694069, "uid": "19008"}, "free_bikes": 2, "id": "e4a127d37dccdee756337c7e69893c1d", "latitude": 48.89465, "longitude": 2.381868, "name": "Flandre - Alphonse Karr", "timestamp": "2022-11-18T17:27:05.505000Z"}, {"empty_slots": 4, "extra": {"banking": true, "ebikes": 9, "last_updated": 1668791642, "payment": ["creditcard"], "payment-terminal": true, "renting": 1, "returning": 1, "slots": 14, "station_id": 213857398, "uid": "21403"}, "free_bikes": 9, "id": "9ed1dc482ac8da21f95e306240ffd5fb", "latitude": 48.81383535598703, "longitude": 2.272278964519501, "name": "Gare de Clamart", "timestamp": "2022-11-18T17:27:05.117000Z"}, {"empty_slots": 28, "extra": {"banking": false, "ebikes": 1, "last_updated": 1668791593, "payment-terminal": false, "renting": 1, "returning": 1, "slots": 29, "station_id": 102338493, "uid": "21701"}, "free_bikes": 1, "id": "62f3254534266bbed321e50393217e5b", "latitude": 48.816939911292, "longitude": 2.2809894804846, "name": "Larmeroux - Baudelaire", "timestamp": "2022-11-18T17:27:04.387000Z"}, {"empty_slots": 15, "extra": {"banking": true, "ebikes": 1, "last_updated": 1668791517, "payment": ["creditcard"], "payment-terminal": true, "renting": 1, "returning": 1, "slots": 22, "station_id": 54000601, "uid": "18009"}, "free_bikes": 2, "id": "51ebad3d693a45da3f101384aa4cb879", "latitude": 48.88611466796807, "longitude": 2.356855627529275, "name": "Jean-Fran\u00e7ois L\u00e9pine - Stephenson", "timestamp": "2022-11-18T17:27:06.278000Z"}, {"empty_slots": 2, "extra": {"banking": true, "ebikes": 2, "last_updated": 1668791588, "payment": ["creditcard"], "payment-terminal": true, "renting": 1, "returning": 1, "slots": 12, "station_id": 120827885, "uid": "8026"}, "free_bikes": 7, "id": "212a1e559d18d8b3f08ba8f5360fcdfd", "latitude": 48.875448033960744, "longitude": 2.315508019010038, "name": "Messine - Place Du P\u00e9rou", "timestamp": "2022-11-18T17:27:04.399000Z"}, {"empty_slots": 14, "extra": {"banking": true, "ebikes": 4, "last_updated": 1668791588, "payment": ["creditcard"], "payment-terminal": true, "renting": 1, "returning": 1, "slots": 26, "station_id": 27362896, "uid": "22003"}, "free_bikes": 11, "id": "17febe78152206d85bbe08b065dbb864", "latitude": 48.886591074487995, "longitude": 2.261394560337067, "name": "Beffroy", "timestamp": "2022-11-18T17:27:03.043000Z"}, {"empty_slots": 30, "extra": {"banking": true, "ebikes": 0, "last_updated": 1668791537, "payment": ["creditcard"], "payment-terminal": true, "renting": 1, "returning": 1, "slots": 34, "station_id": 213687140, "uid": "16038"}, "free_bikes": 4, "id": "83dcce208468d87219973e82469ad2ab", "latitude": 48.84520880183234, "longitude": 2.2656840831041336, "name": "Molitor - Chardon-Lagache", "timestamp": "2022-11-18T17:27:06.162000Z"},